{"type":"park", "_id":2580, "name":"WEIR PARK", "featTypes":["BASKETBALL COURT","SOCCER","BASEBALL"], "area":18.407, "static":{"Activities":3,"Kids":0,"Watersports":0},"clusters":{"1":0.34327580,"2":0.24486460,"3":0.18477310,"4":0.19307100,"5":0.03401555},"features":[301,302,1033,1092],"description":"","imgSrc":[],"location":{"latitude":44.80841298,"longitude":-63.76827853,"address":""}}
{"type":"park", "_id":4026, "name":"WESTMOUNT ELEMENTARY SCHOOL PARK", "featTypes":["TENNIS","SPRAY POOL","GENERAL PLAYGROUND","SOCCER","BASKETBALL HOOP"], "area":3.868, "static":{"Activities":3,"Kids":1,"Watersports":1},"clusters":{"1":0.06307792,"2":0.04815343,"3":0.05851077,"4":0.05636683,"5":0.77389110},"features":[53,54,270,924,961],"description":"","imgSrc":[],"location":{"latitude":44.64715149,"longitude":-63.61610316,"address":"6882 Edward Arab Avenue, Halifax, NS B3L, Canada"}}
{"type":"park", "_id":4027, "name":"OXFORD SCHOOL PARK", "featTypes":["GENERAL PLAYGROUND","BASKETBALL HOOP","BASKETBALL COURT"], "area":0.974, "static":{"Activities":2,"Kids":1,"Watersports":0},"clusters":{"1":0.74945920,"2":0.00721408,"3":0.16361110,"4":0.07597196,"5":0.00374369},"features":[1203,1207,1226],"description":"","imgSrc":[],"location":{"latitude":44.64884776,"longitude":-63.60252323,"address":""}}
{"type":"park", "_id":4024, "name":"ROCKINGHAM ELEMENTARY SCHOOL PARK", "featTypes":["GENERAL PLAYGROUND","PLAYFIELD","BASKETBALL COURT"], "area":1.103, "static":{"Activities":1,"Kids":2,"Watersports":0},"clusters":{"1":0.27705740,"2":0.02249457,"3":0.54119690,"4":0.14705620,"5":0.01219485},"features":[200,945,1242],"description":"","imgSrc":[],"location":{"latitude":44.67648022,"longitude":-63.65473505,"address":""}}
{"type":"park", "_id":4025, "name":"ST AGNES JUNIOR HIGH SCHOOL PARK", "featTypes":["SOCCER"], "area":2.051, "static":{"Activities":1,"Kids":0,"Watersports":0},"clusters":{"1":0.14711370,"2":0.00962228,"3":0.18961020,"4":0.64893250,"5":0.00472128},"features":[1024],"description":"","imgSrc":[],"location":{"latitude":44.64685519,"longitude":-63.61933421,"address":"111 Ilsley Avenue, Dartmouth, NS B3L, Canada"}}
{"type":"park", "_id":4022, "name":"CENTRAL SPRYFIELD ELEMENTARY SCHOOL PARK", "featTypes":["GENERAL PLAYGROUND","BASKETBALL COURT"], "area":1.216, "static":{"Activities":1,"Kids":1,"Watersports":0},"clusters":{"1":0.14460740,"2":0.00541027,"3":0.74209660,"4":0.10508630,"5":0.00279953},"features":[534,916],"description":"","imgSrc":[],"location":{"latitude":44.61118923,"longitude":-63.61761135,"address":""}}
{"type":"park", "_id":4023, "name":"HERRING COVE JUNIOR HIGH SCHOOL PARK", "featTypes":["SOCCER","BASKETBALL HOOP"], "area":3.083, "static":{"Activities":2,"Kids":0,"Watersports":0},"clusters":{"1":0.52517330,"2":0.01820915,"3":0.18503270,"4":0.26325630,"5":0.00832855},"features":[406,902],"description":"","imgSrc":[],"location":{"latitude":44.56760507,"longitude":-63.56688308,"address":""}}
{"type":"park", "_id":4020, "name":"HARRIETSFIELD ELEMENTARY SCHOOL PARK", "featTypes":["BASKETBALL COURT","SOCCER","GENERAL PLAYGROUND"], "area":2.006, "static":{"Activities":2,"Kids":1,"Watersports":0},"clusters":{"1":0.83243200,"2":0.00514387,"3":0.10906220,"4":0.05083991,"5":0.00252209},"features":[568,574,595],"description":"","imgSrc":[],"location":{"latitude":0,"longitude":0,"address":""}}
{"type":"park", "_id":4021, "name":"JL ISLEY HIGH SCHOOL PARK", "featTypes":["SOCCER","BASKETBALL COURT","TENNIS"], "area":3.705, "static":{"Activities":3,"Kids":0,"Watersports":0},"clusters":{"1":0.66329680,"2":0.02513248,"3":0.14104590,"4":0.15932910,"5":0.01119574},"features":[391,917,918],"description":"","imgSrc":[],"location":{"latitude":44.60563242,"longitude":-63.61098559,"address":""}}
{"type":"park", "_id":4028, "name":"ASHBURN PARK", "featTypes":["GENERAL PLAYGROUND","TENNIS"], "area":0.239, "static":{"Activities":1,"Kids":1,"Watersports":0},"clusters":{"1":0.14197330,"2":0.00569097,"3":0.73432220,"4":0.11491070,"5":0.00310272},"features":[217,1030],"description":"","imgSrc":[],"location":{"latitude":44.65253735,"longitude":-63.62869094,"address":""}}
{"type":"park", "_id":4029, "name":"BURTON ETTINGER SCHOOL PARK", "featTypes":["BASEBALL","GENERAL PLAYGROUND","BASKETBALL COURT"], "area":1.371, "static":{"Activities":2,"Kids":1,"Watersports":0},"clusters":{"1":0.78324540,"2":0.00637170,"3":0.14150700,"4":0.06563976,"5":0.00323611},"features":[374,527,531],"description":"","imgSrc":[],"location":{"latitude":44.65111701,"longitude":-63.63861836,"address":""}}
{"type":"park", "_id":1949, "name":"SYBYL COURT PARK", "featTypes":[""], "area":0.061, "static":{"Activities":0,"Kids":0,"Watersports":0},"clusters":{"1":0.00944464,"2":0.00114660,"3":0.02888003,"4":0.95988580,"5":0.00064294},"features":[],"description":"","imgSrc":[],"location":{"latitude":44.65605246,"longitude":-63.64611132,"address":""}}
{"type":"park", "_id":1942, "name":"TITUS SMITH PARK", "featTypes":["GENERAL PLAYGROUND"], "area":0.899, "static":{"Activities":0,"Kids":1,"Watersports":0},"clusters":{"1":0.01736349,"2":0.00165526,"3":0.93499540,"4":0.04509240,"5":0.00089341},"features":[261],"description":"","imgSrc":[],"location":{"latitude":44.66041968,"longitude":-63.63599067,"address":"5-15 Dawn Street, Halifax, NS B3M 3J3, Canada"}}
{"type":"park", "_id":1943, "name":"PLATEAU CRESCENT PARK", "featTypes":[""], "area":0.8, "static":{"Activities":0,"Kids":0,"Watersports":0},"clusters":{"1":0.00225285,"2":0.00027593,"3":0.00684086,"4":0.99048150,"5":0.00014889},"features":[],"description":"","imgSrc":[],"location":{"latitude":44.65934682,"longitude":-63.64539053,"address":""}}
{"type":"park", "_id":1944, "name":"GLENFOREST PARK", "featTypes":[""], "area":2.008, "static":{"Activities":0,"Kids":0,"Watersports":0},"clusters":{"1":0.00516335,"2":0.00065188,"3":0.01499808,"4":0.97885730,"5":0.00032941},"features":[],"description":"","imgSrc":[],"location":{"latitude":44.65648987,"longitude":-63.64694443,"address":""}}
{"type":"park", "_id":1945, "name":"RANDALL AVENUE PARK", "featTypes":[""], "area":0.392, "static":{"Activities":0,"Kids":0,"Watersports":0},"clusters":{"1":0.00549886,"2":0.00066965,"3":0.01679329,"4":0.97666910,"5":0.00036914},"features":[],"description":"","imgSrc":[],"location":{"latitude":44.65824946,"longitude":-63.63978785,"address":"136-166 Evans Avenue, Halifax, NS B3M 1E1, Canada"}}
{"type":"park", "_id":344, "name":"GORSEBROOK PARK", "featTypes":["BASEBALL","LACROSSE","TENNIS","BASKETBALL COURT","BASKETBALL COURT","GENERAL PLAYGROUND","BASEBALL","SOCCER"], "area":7.639, "static":{"Activities":7,"Kids":1,"Watersports":0},"clusters":{"1":0.42929290,"2":0.12813860,"3":0.20314920,"4":0.18116890,"5":0.05825039},"features":[402,631,632,633,794,947,1079,1093,1100],"description":"","imgSrc":[],"location":{"latitude":44.63276988,"longitude":-63.58457766,"address":"1026-1054 Marlborough Avenue, Halifax, NS B3H, Canada"}}
{"type":"park", "_id":342, "name":"ST CATHERINES ELEMENTARY SCHOOL PARK", "featTypes":["BASKETBALL HOOP","GENERAL PLAYGROUND","SOCCER"], "area":1.817, "static":{"Activities":2,"Kids":1,"Watersports":0},"clusters":{"1":0.81867050,"2":0.00548785,"3":0.11816560,"4":0.05495666,"5":0.00271938},"features":[79,605,1105],"description":"","imgSrc":[],"location":{"latitude":44.65560574,"longitude":-63.61516128,"address":""}}
{"type":"park", "_id":810, "name":"KINAP CANOE CLUB", "featTypes":["GENERAL PLAYGROUND","BOAT LAUNCH SMALL","BEACH"], "area":1.741, "static":{"Activities":0,"Kids":1,"Watersports":2},"clusters":{"1":0.11352920,"2":0.11183940,"3":0.11484560,"4":0.11400680,"5":0.54577900},"features":[25,751,911,2566],"description":"","imgSrc":[],"location":{"latitude":44.67966508,"longitude":-63.30829674,"address":""}}
{"type":"park", "_id":813, "name":"EVERGREEN CRESCENT PARK", "featTypes":[""], "area":0.958, "static":{"Activities":0,"Kids":0,"Watersports":0},"clusters":{"1":0.00153387,"2":0.00018840,"3":0.00464149,"4":0.99353540,"5":0.00010081},"features":[],"description":"","imgSrc":[],"location":{"latitude":44.68264063,"longitude":-63.31217556,"address":"12-20 Evergreen Crescent, West Porters Lake, NS B3E 1L7, Canada"}}
{"type":"park", "_id":815, "name":"SALTWATER LAKE PARK", "featTypes":[""], "area":0.32, "static":{"Activities":0,"Kids":0,"Watersports":0},"clusters":{"1":0.00626432,"2":0.00076226,"3":0.01914110,"4":0.97341050,"5":0.00042177},"features":[],"description":"","imgSrc":[],"location":{"latitude":0,"longitude":0,"address":""}}
{"type":"park", "_id":816, "name":"MAIN STREET CORNER PARK", "featTypes":[""], "area":0.117, "static":{"Activities":0,"Kids":0,"Watersports":0},"clusters":{"1":0.00870313,"2":0.00105703,"3":0.02661246,"4":0.96303640,"5":0.00059102},"features":[],"description":"","imgSrc":[],"location":{"latitude":0,"longitude":0,"address":""}}
{"type":"park", "_id":2910, "name":"LAUNCH PARK", "featTypes":[""], "area":0.117, "static":{"Activities":0,"Kids":0,"Watersports":0},"clusters":{"1":0.00870313,"2":0.00105703,"3":0.02661246,"4":0.96303640,"5":0.00059102},"features":[],"description":"","imgSrc":[],"location":{"latitude":44.70037762,"longitude":-63.74047684,"address":""}}
{"type":"park", "_id":2858, "name":"UNNAMED PARK", "featTypes":["PLAYFIELD"], "area":12.53, "static":{"Activities":0,"Kids":1,"Watersports":0},"clusters":{"1":0.25363260,"2":0.08202276,"3":0.36897160,"4":0.27515290,"5":0.02022016},"features":[311],"description":"","imgSrc":[],"location":{"latitude":44.70211403,"longitude":-63.76713191,"address":""}}
{"type":"park", "_id":5030, "name":"CONIFER COURT PARK", "featTypes":[""], "area":0.615, "static":{"Activities":0,"Kids":0,"Watersports":0},"clusters":{"1":0.00348568,"2":0.00042570,"3":0.01061803,"4":0.98523860,"5":0.00023195},"features":[],"description":"","imgSrc":[],"location":{"latitude":44.66209968,"longitude":-63.75449773,"address":""}}
{"type":"park", "_id":2913, "name":"SHERWOOD PARK", "featTypes":[""], "area":0.767, "static":{"Activities":0,"Kids":0,"Watersports":0},"clusters":{"1":0.00244242,"2":0.00029899,"3":0.00742121,"4":0.98967580,"5":0.00016161},"features":[],"description":"","imgSrc":[],"location":{"latitude":44.69870194,"longitude":-63.83677478,"address":""}}
{"type":"park", "_id":2917, "name":"HALIBURTON PARK", "featTypes":[""], "area":4.583, "static":{"Activities":0,"Kids":0,"Watersports":0},"clusters":{"1":0.06229739,"2":0.00902995,"3":0.14736320,"4":0.77738890,"5":0.00392048},"features":[],"description":"","imgSrc":[],"location":{"latitude":44.69517626,"longitude":-63.83432744,"address":""}}
{"type":"park", "_id":2855, "name":"BRISTOL AVENUE PARK", "featTypes":["GENERAL PLAYGROUND"], "area":1.87, "static":{"Activities":0,"Kids":1,"Watersports":0},"clusters":{"1":0.01977646,"2":0.00191363,"3":0.92826630,"4":0.04906314,"5":0.00098050},"features":[1072],"description":"","imgSrc":[],"location":{"latitude":44.70598047,"longitude":-63.8414126,"address":""}}
{"type":"park", "_id":712, "name":"MEADOWVIEW DRIVE PARK", "featTypes":[""], "area":0.127, "static":{"Activities":0,"Kids":0,"Watersports":0},"clusters":{"1":0.00857373,"2":0.00104140,"3":0.02621653,"4":0.96358640,"5":0.00058198},"features":[],"description":"","imgSrc":[],"location":{"latitude":44.74285416,"longitude":-63.29340786,"address":""}}
{"type":"park", "_id":1492, "name":"MEADOWBROOK DRIVE PARK", "featTypes":[""], "area":1.466, "static":{"Activities":0,"Kids":0,"Watersports":0},"clusters":{"1":0.00143724,"2":0.00017855,"3":0.00428019,"4":0.99401110,"5":0.00009300},"features":[],"description":"","imgSrc":[],"location":{"latitude":44.87141842,"longitude":-63.68130679,"address":"56-88 Meadowbrook Drive, Beaver Bank, NS B4G 1E2, Canada"}}
{"type":"park", "_id":5181, "name":"SOUTHGATE DRIVE PARK", "featTypes":["GENERAL PLAYGROUND"], "area":0.122, "static":{"Activities":0,"Kids":1,"Watersports":0},"clusters":{"1":0.02485691,"2":0.00236748,"3":0.90578830,"4":0.06565724,"5":0.00133009},"features":[2886],"description":"","imgSrc":[],"location":{"latitude":44.70343646,"longitude":-63.67903858,"address":"418 Southgate Drive, Bedford, NS B4A 4L8, Canada"}}
{"type":"park", "_id":3490, "name":"HEBB PARK", "featTypes":[""], "area":0.117, "static":{"Activities":0,"Kids":0,"Watersports":0},"clusters":{"1":0.00870313,"2":0.00105703,"3":0.02661246,"4":0.96303640,"5":0.00059102},"features":[],"description":"","imgSrc":[],"location":{"latitude":44.66033311,"longitude":-63.61622799,"address":""}}
{"type":"park", "_id":1498, "name":"CLARENCE COURT PARK", "featTypes":[""], "area":3.122, "static":{"Activities":0,"Kids":0,"Watersports":0},"clusters":{"1":0.02389430,"2":0.00316197,"3":0.06444031,"4":0.90700410,"5":0.00149933},"features":[],"description":"","imgSrc":[],"location":{"latitude":44.84846016,"longitude":-63.61891776,"address":"2-20 Clarence Court, Fall River, NS B2T 1M1, Canada"}}
{"type":"park", "_id":5186, "name":"RIVERWOOD DRIVE PARK", "featTypes":[""], "area":0.133, "static":{"Activities":0,"Kids":0,"Watersports":0},"clusters":{"1":0.00849654,"2":0.00103207,"3":0.02598030,"4":0.96391450,"5":0.00057659},"features":[],"description":"","imgSrc":[],"location":{"latitude":44.65086147,"longitude":-63.73369367,"address":""}}
{"type":"park", "_id":2071, "name":"TEACHERY PARK", "featTypes":["TENNIS","GENERAL PLAYGROUND"], "area":0.26, "static":{"Activities":1,"Kids":1,"Watersports":0},"clusters":{"1":0.14185270,"2":0.00567622,"3":0.73482380,"4":0.11455600,"5":0.00309128},"features":[430,910],"description":"","imgSrc":[],"location":{"latitude":44.72710453,"longitude":-63.66714848,"address":""}}
{"type":"park", "_id":1542, "name":"LEO LANIGAN PARK", "featTypes":["GENERAL PLAYGROUND"], "area":0.215, "static":{"Activities":0,"Kids":1,"Watersports":0},"clusters":{"1":0.02359475,"2":0.00224643,"3":0.91064890,"4":0.06225375,"5":0.00125614},"features":[178],"description":"","imgSrc":[],"location":{"latitude":44.63096278,"longitude":-63.62452401,"address":"74-80 Withrod Drive, Halifax, NS B3N 1B4, Canada"}}
{"type":"park", "_id":1061, "name":"UNNAMED PARK", "featTypes":[""], "area":0.124, "static":{"Activities":0,"Kids":0,"Watersports":0},"clusters":{"1":0.00861246,"2":0.00104608,"3":0.02633502,"4":0.96342180,"5":0.00058468},"features":[],"description":"","imgSrc":[],"location":{"latitude":44.64832452,"longitude":-63.47332259,"address":""}}
{"type":"park", "_id":2317, "name":"WINDWOOD DRIVE PARK", "featTypes":["GENERAL PLAYGROUND"], "area":0.19, "static":{"Activities":0,"Kids":1,"Watersports":0},"clusters":{"1":0.02392547,"2":0.00227812,"3":0.90937410,"4":0.06314682,"5":0.00127548},"features":[538],"description":"","imgSrc":[],"location":{"latitude":44.78084598,"longitude":-63.71169878,"address":""}}
{"type":"park", "_id":5185, "name":"MOUNT ROYALE PARK", "featTypes":[""], "area":3.123, "static":{"Activities":0,"Kids":0,"Watersports":0},"clusters":{"1":0.02391655,"2":0.00316508,"3":0.06449524,"4":0.90692240,"5":0.00150072},"features":[],"description":"","imgSrc":[],"location":{"latitude":44.64787481,"longitude":-63.65574619,"address":"15 Bently Drive, Halifax, NS B3S 0A7, Canada"}}
{"type":"park", "_id":1065, "name":"CATHERINE FURNESS PARK", "featTypes":["GENERAL PLAYGROUND"], "area":0.101, "static":{"Activities":0,"Kids":1,"Watersports":0},"clusters":{"1":0.02515375,"2":0.00239599,"3":0.90464690,"4":0.06645586,"5":0.00134755},"features":[497],"description":"","imgSrc":[],"location":{"latitude":44.66632986,"longitude":-63.57638147,"address":"Dartmouth, NS B3A 1B8, Canada"}}
{"type":"park", "_id":2313, "name":"LEGACY COURT PARK", "featTypes":[""], "area":0.107, "static":{"Activities":0,"Kids":0,"Watersports":0},"clusters":{"1":0.00883345,"2":0.00107277,"3":0.02701115,"4":0.96248250,"5":0.00060013},"features":[],"description":"","imgSrc":[],"location":{"latitude":44.75449702,"longitude":-63.66436135,"address":""}}
{"type":"park", "_id":1067, "name":"PARKEDGE CRESCENT PARK", "featTypes":[""], "area":1.243, "static":{"Activities":0,"Kids":0,"Watersports":0},"clusters":{"1":0.00105448,"2":0.00013029,"3":0.00316522,"4":0.99558140,"5":0.00006870},"features":[],"description":"","imgSrc":[],"location":{"latitude":44.64987999,"longitude":-63.47088676,"address":"6-30 Parkedge Crescent, Dartmouth, NS B2V 2V1, Canada"}}
{"type":"park", "_id":1066, "name":"SHORE ROAD PARK", "featTypes":[""], "area":0.176, "static":{"Activities":0,"Kids":0,"Watersports":0},"clusters":{"1":0.00795319,"2":0.00096643,"3":0.02431692,"4":0.96622470,"5":0.00053872},"features":[],"description":"","imgSrc":[],"location":{"latitude":0,"longitude":0,"address":""}}
{"type":"park", "_id":1667, "name":"FOSTER PARK", "featTypes":[""], "area":0.068, "static":{"Activities":0,"Kids":0,"Watersports":0},"clusters":{"1":0.00935041,"2":0.00113522,"3":0.02859198,"4":0.96028610,"5":0.00063633},"features":[],"description":"","imgSrc":[],"location":{"latitude":44.64868694,"longitude":-63.6030673,"address":"6430 Chebucto Road, Halifax, NS B3L, Canada"}}
{"type":"park", "_id":1665, "name":"NICK MEAGHER PARK", "featTypes":[""], "area":0.087, "static":{"Activities":0,"Kids":0,"Watersports":0},"clusters":{"1":0.00909683,"2":0.00110459,"3":0.02781671,"4":0.96136330,"5":0.00061856},"features":[],"description":"","imgSrc":[],"location":{"latitude":44.64953221,"longitude":-63.59977159,"address":"6277-6319 Chebucto Road, Halifax, NS B3L 1K9, Canada"}}
{"type":"park", "_id":1663, "name":"CHEBUCTO ROAD SCHOOL PARK", "featTypes":["PLAYFIELD","GENERAL PLAYGROUND"], "area":0.428, "static":{"Activities":0,"Kids":2,"Watersports":0},"clusters":{"1":0.16764820,"2":0.02209288,"3":0.63206570,"4":0.16553200,"5":0.01266124},"features":[362,542],"description":"","imgSrc":[],"location":{"latitude":44.64972428,"longitude":-63.59919962,"address":"6237 Chebucto Road, Halifax, NS B3L 1K7, Canada"}}
{"type":"park", "_id":1662, "name":"COGSWELL PARK", "featTypes":[""], "area":0.29, "static":{"Activities":0,"Kids":0,"Watersports":0},"clusters":{"1":0.00659910,"2":0.00080275,"3":0.02016763,"4":0.97198570,"5":0.00044486},"features":[],"description":"","imgSrc":[],"location":{"latitude":44.64748864,"longitude":-63.59300549,"address":""}}
{"type":"park", "_id":1086, "name":"JOSEPH HOWE PARK", "featTypes":[""], "area":0.053, "static":{"Activities":0,"Kids":0,"Watersports":0},"clusters":{"1":0.00955288,"2":0.00115967,"3":0.02921082,"4":0.95942610,"5":0.00065053},"features":[],"description":"","imgSrc":[],"location":{"latitude":44.66468953,"longitude":-63.56882702,"address":"61-69 Alderney Drive, Dartmouth, NS B2Y 2N7, Canada"}}
{"type":"park", "_id":1085, "name":"GREEN BAY PARK", "featTypes":[""], "area":1.981, "static":{"Activities":0,"Kids":0,"Watersports":0},"clusters":{"1":0.00488584,"2":0.00061628,"3":0.01421226,"4":0.97997370,"5":0.00031189},"features":[],"description":"","imgSrc":[],"location":{"latitude":44.62213828,"longitude":-63.42176891,"address":"1609-1669 Cow Bay Road, Cow Bay, NS B3G 1L1, Canada"}}
{"type":"park", "_id":1084, "name":"SILVER SANDS BEACH PARK", "featTypes":["BEACH"], "area":4.909, "static":{"Activities":0,"Kids":0,"Watersports":1},"clusters":{"1":0.01325221,"2":0.01130346,"3":0.01372170,"4":0.01403098,"5":0.94769160},"features":[626],"description":"","imgSrc":[],"location":{"latitude":44.60841529,"longitude":-63.44483939,"address":""}}
{"type":"park", "_id":1081, "name":"SEROP CRESCENT PARK", "featTypes":["GENERAL PLAYGROUND"], "area":0.327, "static":{"Activities":0,"Kids":1,"Watersports":0},"clusters":{"1":0.02219372,"2":0.00211246,"3":0.91605990,"4":0.05845946,"5":0.00117448},"features":[244],"description":"","imgSrc":[],"location":{"latitude":44.61369653,"longitude":-63.46705926,"address":""}}
{"type":"park", "_id":1088, "name":"DEYOUNG DRIVE PARK", "featTypes":["GENERAL PLAYGROUND"], "area":0.1, "static":{"Activities":0,"Kids":1,"Watersports":0},"clusters":{"1":0.02516800,"2":0.00239736,"3":0.90459210,"4":0.06649416,"5":0.00134838},"features":[109],"description":"","imgSrc":[],"location":{"latitude":44.61829424,"longitude":-63.47760088,"address":"28-32 Deyoung Drive, Eastern Passage, NS B3G 1N2, Canada"}}
{"type":"park", "_id":272, "name":"EASTERN CONSOLIDATED ELEMENTARY SCHOOL PARK", "featTypes":["PLAYFIELD","BASEBALL","GENERAL PLAYGROUND","BASKETBALL COURT"], "area":2.49, "static":{"Activities":2,"Kids":2,"Watersports":0},"clusters":{"1":0.49879290,"2":0.02719955,"3":0.33032870,"4":0.13007530,"5":0.01360353},"features":[172,173,174,748],"description":"","imgSrc":[],"location":{"latitude":44.97152098,"longitude":-62.26034789,"address":"Parlee Road, Moser River, NS B0J 2K0, Canada"}}
{"type":"park", "_id":3147, "name":"RIVERVIEW DRIVE PARK", "featTypes":[""], "area":0.139, "static":{"Activities":0,"Kids":0,"Watersports":0},"clusters":{"1":0.00841968,"2":0.00102279,"3":0.02574508,"4":0.96424120,"5":0.00057122},"features":[],"description":"","imgSrc":[],"location":{"latitude":44.64900458,"longitude":-63.73192426,"address":""}}
{"type":"park", "_id":2545, "name":"METROPOLITAN AVENUE PARK", "featTypes":["RUNNING TRACK","FOOTBALL","MODULER RAMPS","TENNIS","TENNIS"], "area":3.154, "static":{"Activities":5,"Kids":0,"Watersports":0},"clusters":{"1":0.53001780,"2":0.06625843,"3":0.18489030,"4":0.18629410,"5":0.03253943},"features":[745,989,1243,1244,1245,1246],"description":"","imgSrc":[],"location":{"latitude":44.77865513,"longitude":-63.67714904,"address":"5-133 Lumsden Crescent, Lower Sackville, NS B4C, Canada"}}
{"type":"park", "_id":2980, "name":"ELBOW LAKE PARK", "featTypes":[""], "area":0.401, "static":{"Activities":0,"Kids":0,"Watersports":0},"clusters":{"1":0.00540702,"2":0.00065853,"3":0.01651155,"4":0.97706010,"5":0.00036284},"features":[515],"description":"","imgSrc":[],"location":{"latitude":44.69221991,"longitude":-63.83510355,"address":""}}
{"type":"park", "_id":2987, "name":"ABBEY ROAD PARK", "featTypes":["GENERAL OUTDOOR RINK","GENERAL OUTDOOR RINK","GENERAL PLAYGROUND"], "area":3.763, "static":{"Activities":1,"Kids":2,"Watersports":0},"clusters":{"1":0.30779470,"2":0.02696405,"3":0.50445750,"4":0.14807060,"5":0.01271311},"features":[684,697,4501],"description":"","imgSrc":[],"location":{"latitude":44.68560077,"longitude":-63.82108876,"address":""}}
{"type":"park", "_id":3389, "name":"UNNAMED PARK", "featTypes":[""], "area":4.993, "static":{"Activities":0,"Kids":0,"Watersports":0},"clusters":{"1":0.07417375,"2":0.01109644,"3":0.16846760,"4":0.74156690,"5":0.00469527},"features":[],"description":"","imgSrc":[],"location":{"latitude":44.75914532,"longitude":-63.78726707,"address":""}}
{"type":"park", "_id":525, "name":"WILCOT LANE PARK", "featTypes":["BASKETBALL HOOP","GENERAL PLAYGROUND"], "area":0.55, "static":{"Activities":1,"Kids":1,"Watersports":0},"clusters":{"1":0.14089240,"2":0.00550938,"3":0.74037850,"4":0.11026480,"5":0.00295490},"features":[322,585],"description":"","imgSrc":[],"location":{"latitude":44.72661506,"longitude":-63.54068615,"address":"4-10 Wilcot Lane, Dartmouth, NS B2X 3T8, Canada"}}
{"type":"park", "_id":526, "name":"MARY LAWSON PARK", "featTypes":["GENERAL PLAYGROUND","BASKETBALL COURT"], "area":0.78, "static":{"Activities":1,"Kids":1,"Watersports":0},"clusters":{"1":0.14116990,"2":0.00542860,"3":0.74281100,"4":0.10771440,"5":0.00287608},"features":[71,1225],"description":"","imgSrc":[],"location":{"latitude":44.68637502,"longitude":-63.54189899,"address":""}}
{"type":"park", "_id":520, "name":"PERCY BAKER MEMORIAL PARK", "featTypes":[""], "area":1.667, "static":{"Activities":0,"Kids":0,"Watersports":0},"clusters":{"1":0.00236016,"2":0.00029481,"3":0.00697047,"4":0.99022280,"5":0.00015181},"features":[],"description":"","imgSrc":[],"location":{"latitude":44.50879163,"longitude":-63.73341866,"address":""}}
{"type":"park", "_id":521, "name":"TERENCE BAY PLAYGROUND", "featTypes":[""], "area":0.237, "static":{"Activities":0,"Kids":0,"Watersports":0},"clusters":{"1":0.00721273,"2":0.00087694,"3":0.02204857,"4":0.96937450,"5":0.00048730},"features":[],"description":"","imgSrc":[],"location":{"latitude":44.46324507,"longitude":-63.72238225,"address":"1803-1883 Lower Prospect Road, Terence Bay, NS B3T 1Y6, Canada"}}
{"type":"park", "_id":523, "name":"YEADON GREEN PARK", "featTypes":["GENERAL PLAYGROUND"], "area":1.901, "static":{"Activities":0,"Kids":1,"Watersports":0},"clusters":{"1":0.02008845,"2":0.00194527,"3":0.92722830,"4":0.04974296,"5":0.00099503},"features":[1126],"description":"","imgSrc":[],"location":{"latitude":44.54725294,"longitude":-63.71991482,"address":"370-490 Brookside Road, Brookside, NS B3T, Canada"}}
{"type":"park", "_id":1407, "name":"ROACHES POND PARK", "featTypes":["GENERAL PLAYGROUND","BASKETBALL COURT"], "area":0.489, "static":{"Activities":1,"Kids":1,"Watersports":0},"clusters":{"1":0.14097940,"2":0.00553862,"3":0.73943120,"4":0.11107060,"5":0.00298019},"features":[198,1197],"description":"","imgSrc":[],"location":{"latitude":44.59898373,"longitude":-63.60557221,"address":"541-569 Herring Cove Road, Halifax, NS B3R 1X3, Canada"}}
{"type":"park", "_id":1406, "name":"TWO RIVER PARK", "featTypes":["GENERAL PLAYGROUND"], "area":0.826, "static":{"Activities":0,"Kids":1,"Watersports":0},"clusters":{"1":0.01774359,"2":0.00169068,"3":0.93346220,"4":0.04618749,"5":0.00091602},"features":[1181],"description":"","imgSrc":[],"location":{"latitude":44.71019352,"longitude":-63.38535104,"address":"11-47 Partridge Nest Drive, Mineville, NS B2Z, Canada"}}
{"type":"park", "_id":2519, "name":"TIMBERLANE TERRACE PARK", "featTypes":[""], "area":1.72, "static":{"Activities":0,"Kids":0,"Watersports":0},"clusters":{"1":0.00269449,"2":0.00033710,"3":0.00793900,"4":0.98885630,"5":0.00017308},"features":[],"description":"","imgSrc":[],"location":{"latitude":44.72017996,"longitude":-63.83158137,"address":""}}
{"type":"park", "_id":2768, "name":"GREENHILL ROAD PARK", "featTypes":["TENNIS","BASKETBALL HOOP"], "area":0.612, "static":{"Activities":2,"Kids":0,"Watersports":0},"clusters":{"1":0.46164940,"2":0.01735302,"3":0.20943570,"4":0.30243320,"5":0.00912869},"features":[505,2252],"description":"","imgSrc":[],"location":{"latitude":0,"longitude":0,"address":""}}
{"type":"park", "_id":5007, "name":"RIDGECLIFF MIDDLE SCHOOL PARK", "featTypes":["BASKETBALL COURT","SOCCER"], "area":5.168, "static":{"Activities":2,"Kids":0,"Watersports":0},"clusters":{"1":0.54356320,"2":0.02249140,"3":0.18000320,"4":0.24491230,"5":0.00902990},"features":[1069,1119],"description":"","imgSrc":[],"location":{"latitude":44.63338822,"longitude":-63.68601463,"address":"178-260 States Lane, Beechville, NS B3T 2J3, Canada"}}
{"type":"park", "_id":3585, "name":"ACADIA RECREATION PARK", "featTypes":["BASEBALL","BASEBALL"], "area":2.531, "static":{"Activities":2,"Kids":0,"Watersports":0},"clusters":{"1":0.51380760,"2":0.01770507,"3":0.18905940,"4":0.27106170,"5":0.00836617},"features":[370,400,526],"description":"","imgSrc":[],"location":{"latitude":0,"longitude":0,"address":""}}
{"type":"park", "_id":1232, "name":"MARTINS PARK", "featTypes":[""], "area":0.526, "static":{"Activities":0,"Kids":0,"Watersports":0},"clusters":{"1":0.00422240,"2":0.00051505,"3":0.01287743,"4":0.98210320,"5":0.00028194},"features":[],"description":"","imgSrc":[],"location":{"latitude":44.66483216,"longitude":-63.56473629,"address":"Shubenacadie Canal Trail, Dartmouth, NS B2Y 2W1, Canada"}}
{"type":"park", "_id":5004, "name":"MADELINE SYMONDS MIDDLE SCHOOL PARK", "featTypes":["BASKETBALL COURT","SOCCER"], "area":9.767, "static":{"Activities":2,"Kids":0,"Watersports":0},"clusters":{"1":0.48208180,"2":0.05225360,"3":0.20366930,"4":0.24694820,"5":0.01504709},"features":[156,157,158],"description":"","imgSrc":[],"location":{"latitude":44.74575533,"longitude":-63.80920488,"address":""}}
{"type":"park", "_id":443, "name":"FINDLAY COMMUNITY CENTRE", "featTypes":["GENERAL PLAYGROUND","HORSESHOE"], "area":1.425, "static":{"Activities":1,"Kids":1,"Watersports":0},"clusters":{"1":0.14772970,"2":0.00546707,"3":0.73914020,"4":0.10486640,"5":0.00279666},"features":[492,908],"description":"","imgSrc":[],"location":{"latitude":0,"longitude":0,"address":""}}
{"type":"park", "_id":442, "name":"FALL RIVER RECREATION CENTRE", "featTypes":["BASKETBALL COURT"], "area":0.565, "static":{"Activities":1,"Kids":0,"Watersports":0},"clusters":{"1":0.13454460,"2":0.00886917,"3":0.19082190,"4":0.66103790,"5":0.00472642},"features":[887],"description":"","imgSrc":[],"location":{"latitude":44.81350781,"longitude":-63.61005061,"address":"3155-3195 Nova Scotia Trunk 2, Fall River, NS B2T 1J5, Canada"}}
{"type":"park", "_id":441, "name":"PEACE PARK", "featTypes":["BASEBALL","GENERAL PLAYGROUND"], "area":4.217, "static":{"Activities":1,"Kids":1,"Watersports":0},"clusters":{"1":0.26220810,"2":0.01014631,"3":0.57941300,"4":0.14382620,"5":0.00440638},"features":[8,423,893],"description":"","imgSrc":[],"location":{"latitude":44.78837755,"longitude":-63.14965926,"address":"Nova Scotia 357, Musquodoboit Harbour, NS B0J 2L0, Canada"}}
{"type":"park", "_id":440, "name":"EAST PRESTON PARK", "featTypes":["GENERAL PLAYGROUND","BASEBALL"], "area":4.66, "static":{"Activities":1,"Kids":1,"Watersports":0},"clusters":{"1":0.28353750,"2":0.01147050,"3":0.54817530,"4":0.15197210,"5":0.00484465},"features":[480,779,807],"description":"","imgSrc":[],"location":{"latitude":44.71913393,"longitude":-63.43593386,"address":"85-153 Upper Governor Street, East Preston, NS B2Z 1G1, Canada"}}
{"type":"park", "_id":1238, "name":"LAKE ECHO COMMUNITY PLAY PARK", "featTypes":["BASEBALL","BASEBALL","GENERAL PLAYGROUND","BASKETBALL COURT"], "area":2.201, "static":{"Activities":3,"Kids":1,"Watersports":0},"clusters":{"1":0.87741050,"2":0.00779938,"3":0.06689413,"4":0.04408595,"5":0.00381003},"features":[24,232,485,896,897],"description":"","imgSrc":[],"location":{"latitude":44.73993417,"longitude":-63.38082602,"address":""}}
{"type":"park", "_id":446, "name":"BOWLES ARENA", "featTypes":[""], "area":2.311, "static":{"Activities":0,"Kids":0,"Watersports":0},"clusters":{"1":0.00890435,"2":0.00113653,"3":0.02542071,"4":0.96397380,"5":0.00056463},"features":[831],"description":"","imgSrc":[],"location":{"latitude":44.65686074,"longitude":-63.54694585,"address":"16 Acadia Street, Dartmouth, NS B2Y 2N1, Canada"}}
{"type":"park", "_id":444, "name":"GEORGE DIXON CENTRE PARK", "featTypes":["BASKETBALL COURT","BASKETBALL COURT","GENERAL PLAYGROUND","HORSESHOE","SPRAY POOL"], "area":1.842, "static":{"Activities":3,"Kids":1,"Watersports":1},"clusters":{"1":0.06425350,"2":0.04667490,"3":0.05990233,"4":0.05770496,"5":0.77146430},"features":[361,372,575,614,635],"description":"","imgSrc":[],"location":{"latitude":44.65583477,"longitude":-63.58990557,"address":"5500-5526 Charles Street, Halifax, NS B3K 3S1, Canada"}}
{"type":"park", "_id":108, "name":"MORASH PARK", "featTypes":["GENERAL PLAYGROUND","TENNIS"], "area":1.535, "static":{"Activities":1,"Kids":1,"Watersports":0},"clusters":{"1":0.14977360,"2":0.00551447,"3":0.73689180,"4":0.10501630,"5":0.00280380},"features":[351,352,1233],"description":"","imgSrc":[],"location":{"latitude":44.67738549,"longitude":-63.52861297,"address":""}}
{"type":"park", "_id":109, "name":"OATHILL LAKE PARK", "featTypes":[""], "area":4.84, "static":{"Activities":0,"Kids":0,"Watersports":0},"clusters":{"1":0.06972577,"2":0.01030564,"3":0.16080300,"4":0.75476260,"5":0.00440297},"features":[],"description":"","imgSrc":[],"location":{"latitude":44.66924226,"longitude":-63.55292657,"address":"4 Connor Street, Dartmouth, NS B2Y, Canada"}}
{"type":"park", "_id":103, "name":"POPLAR DRIVE PARK", "featTypes":[""], "area":0.39, "static":{"Activities":0,"Kids":0,"Watersports":0},"clusters":{"1":0.00551939,"2":0.00067213,"3":0.01685626,"4":0.97658170,"5":0.00037055},"features":[],"description":"","imgSrc":[],"location":{"latitude":44.67661842,"longitude":-63.50007107,"address":"68-108 Sirius Crescent, Dartmouth, NS B2W 4L5, Canada"}}
{"type":"park", "_id":100, "name":"AUBURN JOHN STEWART PARK", "featTypes":["BASKETBALL HOOP","GENERAL PLAYGROUND"], "area":1.763, "static":{"Activities":1,"Kids":1,"Watersports":0},"clusters":{"1":0.15489590,"2":0.00565141,"3":0.73072660,"4":0.10588890,"5":0.00283717},"features":[871,1086],"description":"","imgSrc":[],"location":{"latitude":44.68468271,"longitude":-63.48580939,"address":"2-34 Sophia Crescent, Dartmouth, NS B2W 6C9, Canada"}}
{"type":"park", "_id":106, "name":"COLLINS GROVE PARK", "featTypes":[""], "area":1.055, "static":{"Activities":0,"Kids":0,"Watersports":0},"clusters":{"1":0.00125071,"2":0.00015391,"3":0.00377527,"4":0.99473820,"5":0.00008190},"features":[],"description":"","imgSrc":[],"location":{"latitude":44.67170877,"longitude":-63.51730516,"address":""}}
{"type":"park", "_id":107, "name":"ROBERT DRIVE PARK", "featTypes":["GENERAL PLAYGROUND","BASEBALL","GENERAL"], "area":1.393, "static":{"Activities":2,"Kids":1,"Watersports":0},"clusters":{"1":0.78506940,"2":0.00632624,"3":0.14030890,"4":0.06508630,"5":0.00320916},"features":[136,416,764,1237],"description":"","imgSrc":[],"location":{"latitude":44.68386012,"longitude":-63.52447905,"address":""}}
{"type":"park", "_id":104, "name":"FOREST HILLS COMMONS", "featTypes":["BASEBALL","BASEBALL","GENERAL PLAYGROUND","TENNIS","CONCRETE PARK","SOCCER","SOCCER","RUNNING TRACK"], "area":23.718, "static":{"Activities":7,"Kids":1,"Watersports":0},"clusters":{"1":0.29393450,"2":0.30034690,"3":0.17530490,"4":0.16224860,"5":0.06816508},"features":[477,478,489,669,784,869,870,1097,1107,2256],"description":"","imgSrc":[],"location":{"latitude":44.67437766,"longitude":-63.49118804,"address":""}}
{"type":"park", "_id":902, "name":"GRAYSON COURT PARK", "featTypes":[""], "area":0.65, "static":{"Activities":0,"Kids":0,"Watersports":0},"clusters":{"1":0.00322108,"2":0.00039359,"3":0.00980684,"4":0.98636440,"5":0.00021406},"features":[],"description":"","imgSrc":[],"location":{"latitude":44.76514863,"longitude":-63.6968196,"address":"Nova Scotia 101, Lower Sackville, NS B4C, Canada"}}
{"type":"park", "_id":901, "name":"STATES LANE PARK", "featTypes":[""], "area":0.28, "static":{"Activities":0,"Kids":0,"Watersports":0},"clusters":{"1":0.00671272,"2":0.00081649,"3":0.02051599,"4":0.97150210,"5":0.00045271},"features":[],"description":"","imgSrc":[],"location":{"latitude":0,"longitude":0,"address":""}}
{"type":"park", "_id":906, "name":"JOHN MARTIN JUNIOR HIGH SCHOOL PARK", "featTypes":["BASEBALL","GENERAL PLAYGROUND","BASKETBALL COURT"], "area":2.144, "static":{"Activities":2,"Kids":1,"Watersports":0},"clusters":{"1":0.84188650,"2":0.00490758,"3":0.10279720,"4":0.04802121,"5":0.00238758},"features":[279,495,774],"description":"","imgSrc":[],"location":{"latitude":44.68238316,"longitude":-63.58963328,"address":"250 Victoria Road, Dartmouth, NS B3A 3P5, Canada"}}
{"type":"park", "_id":907, "name":"NORTH DARTMOUTH COMMUNITY GARDEN", "featTypes":[""], "area":0.205, "static":{"Activities":0,"Kids":0,"Watersports":0},"clusters":{"1":0.00759667,"2":0.00092334,"3":0.02322496,"4":0.96774110,"5":0.00051394},"features":[],"description":"","imgSrc":[],"location":{"latitude":44.68234163,"longitude":-63.58409386,"address":"25-63 Jackson Road, Dartmouth, NS B3A 4A3, Canada"}}
{"type":"park", "_id":33, "name":"MAINLAND COMMONS", "featTypes":["VOLLEYBALL","BASEBALL","BASEBALL","SOCCER","SOCCER","SOCCER"], "area":59.671, "static":{"Activities":6,"Kids":0,"Watersports":0},"clusters":{"1":0.15563490,"2":0.49433670,"3":0.13055430,"4":0.13023580,"5":0.08923834},"features":[1,281,350,383,467,1281],"description":"","imgSrc":[],"location":{"latitude":44.65036448,"longitude":-63.66737835,"address":"43 Washmill Lake Drive, Halifax, NS B3S, Canada"}}
{"type":"park", "_id":32, "name":"BELL LAKE PARK", "featTypes":["BEACH"], "area":11.25, "static":{"Activities":0,"Kids":0,"Watersports":1},"clusters":{"1":0.03461710,"2":0.03545444,"3":0.03526171,"4":0.03601285,"5":0.85865390},"features":[421],"description":"","imgSrc":[],"location":{"latitude":44.67095042,"longitude":-63.51354229,"address":""}}
{"type":"park", "_id":31, "name":"RANGE PARK", "featTypes":["LAWN BOWLING","BASEBALL","SOCCER","BASEBALL"], "area":5.885, "static":{"Activities":4,"Kids":0,"Watersports":0},"clusters":{"1":0.60009660,"2":0.05153331,"3":0.16055800,"4":0.16693210,"5":0.02087999},"features":[682,919,971,1039,1040,1187],"description":"","imgSrc":[],"location":{"latitude":44.73953681,"longitude":-63.65875843,"address":""}}
{"type":"park", "_id":30, "name":"BEAZLEY PARK", "featTypes":["RUNNING TRACK","BASEBALL","BASEBALL","SOCCER","BASEBALL","MODULER RAMPS","BASKETBALL COURT","OUTDOOR GYM"], "area":8.541, "static":{"Activities":8,"Kids":0,"Watersports":0},"clusters":{"1":0.37435590,"2":0.15509050,"3":0.20072330,"4":0.19680740,"5":0.07302290},"features":[227,346,396,438,460,825,2241,4496],"description":"","imgSrc":[],"location":{"latitude":44.68513345,"longitude":-63.53576252,"address":""}}
{"type":"park", "_id":36, "name":"BELVEDERE PARK", "featTypes":["GENERAL PLAYGROUND"], "area":0.627, "static":{"Activities":0,"Kids":1,"Watersports":0},"clusters":{"1":0.01914448,"2":0.00182254,"3":0.92792180,"4":0.05011340,"5":0.00099776},"features":[230],"description":"","imgSrc":[],"location":{"latitude":44.70531957,"longitude":-63.54785038,"address":"9-19 Lethbridge Avenue, Dartmouth, NS B2X, Canada"}}
{"type":"park", "_id":34, "name":"HARTLEN PARK", "featTypes":["GENERAL PLAYGROUND","BASKETBALL HOOP","BASEBALL","BASEBALL"], "area":2.095, "static":{"Activities":3,"Kids":1,"Watersports":0},"clusters":{"1":0.87392290,"2":0.00796836,"3":0.06884284,"4":0.04535080,"5":0.00391509},"features":[606,913,952,953],"description":"","imgSrc":[],"location":{"latitude":44.61172154,"longitude":-63.61294678,"address":""}}
{"type":"park", "_id":1241, "name":"CHAMBERLAIN DRIVE PARK", "featTypes":["GENERAL PLAYGROUND"], "area":0.275, "static":{"Activities":0,"Kids":1,"Watersports":0},"clusters":{"1":0.02282754,"2":0.00217301,"3":0.91360980,"4":0.06017828,"5":0.00121137},"features":[535],"description":"","imgSrc":[],"location":{"latitude":44.70724272,"longitude":-63.47142202,"address":"34-62 Chamberlain Drive, Dartmouth, NS B2Z 1B1, Canada"}}
{"type":"park", "_id":1243, "name":"MOSER RIVER PARK", "featTypes":["GENERAL PLAYGROUND"], "area":0.31, "static":{"Activities":0,"Kids":1,"Watersports":0},"clusters":{"1":0.02239770,"2":0.00213193,"3":0.91527100,"4":0.05901305,"5":0.00118635},"features":[315,698],"description":"","imgSrc":[],"location":{"latitude":44.97079758,"longitude":-62.25605301,"address":"Marine Drive, Moser River, NS B0J 2K0, Canada"}}
{"type":"park", "_id":1242, "name":"AARONS WAY PARK", "featTypes":[""], "area":0.999, "static":{"Activities":0,"Kids":0,"Watersports":0},"clusters":{"1":0.00139929,"2":0.00017200,"3":0.00422993,"4":0.99410700,"5":0.00009180},"features":[],"description":"","imgSrc":[],"location":{"latitude":44.59402249,"longitude":-63.56264113,"address":""}}
{"type":"park", "_id":644, "name":"PLEASANT DRIVE PARK", "featTypes":["BEACH","BOAT LAUNCH LARGE"], "area":0.26, "static":{"Activities":0,"Kids":0,"Watersports":2},"clusters":{"1":0.11288920,"2":0.11057100,"3":0.11407060,"4":0.11463000,"5":0.54783920},"features":[880,885,906],"description":"","imgSrc":[],"location":{"latitude":44.77033143,"longitude":-63.2005741,"address":""}}
{"type":"park", "_id":3094, "name":"SILVER MAPLE DRIVE PARK", "featTypes":[""], "area":0.041, "static":{"Activities":0,"Kids":0,"Watersports":0},"clusters":{"1":0.00971629,"2":0.00117941,"3":0.02971016,"4":0.95873210,"5":0.00066201},"features":[],"description":"","imgSrc":[],"location":{"latitude":44.65432946,"longitude":-63.74350225,"address":"18-34 Red Maple Drive, Timberlea, NS B3T 1G6, Canada"}}
{"type":"park", "_id":436, "name":"CHOCOLATE LAKE COMMUNITY CENTRE", "featTypes":["BASEBALL"], "area":1.227, "static":{"Activities":1,"Kids":0,"Watersports":0},"clusters":{"1":0.13739830,"2":0.00896723,"3":0.18742410,"4":0.66160120,"5":0.00460918},"features":[394,903],"description":"","imgSrc":[],"location":{"latitude":44.63758381,"longitude":-63.61961186,"address":""}}
{"type":"park", "_id":434, "name":"BLOOMFIELD CENTRE PARK", "featTypes":["GENERAL PLAYGROUND","BASKETBALL HOOP","TENNIS"], "area":1.325, "static":{"Activities":2,"Kids":1,"Watersports":0},"clusters":{"1":0.77941130,"2":0.00646725,"3":0.14402410,"4":0.06680446,"5":0.00329291},"features":[706,707,998],"description":"","imgSrc":[],"location":{"latitude":44.65667416,"longitude":-63.59861409,"address":"2760 Robie Street, Halifax, NS B3K 4P2, Canada"}}
{"type":"park", "_id":435, "name":"CAPTAIN WILLIAM SPRY CENTRE", "featTypes":["CONCRETE PARK"], "area":6.524, "static":{"Activities":1,"Kids":0,"Watersports":0},"clusters":{"1":0.26062360,"2":0.02422123,"3":0.24335220,"4":0.46285660,"5":0.00894634},"features":[777,2562],"description":"","imgSrc":[],"location":{"latitude":44.60545466,"longitude":-63.61946953,"address":"24-40 Beachstone Drive, Halifax, NS B3R 0A4, Canada"}}
{"type":"park", "_id":433, "name":"BEECHVILLE LAKESIDE TIMBERLEA REC CTR", "featTypes":["GENERAL PLAYGROUND","BASKETBALL COURT","BASKETBALL COURT","MODULER RAMPS","BASEBALL","TENNIS"], "area":2.223, "static":{"Activities":5,"Kids":1,"Watersports":0},"clusters":{"1":0.57924930,"2":0.05576362,"3":0.18434460,"4":0.15186370,"5":0.02877876},"features":[220,796,979,981,988,992],"description":"","imgSrc":[],"location":{"latitude":0,"longitude":0,"address":""}}
{"type":"park", "_id":431, "name":"BEAVER BANK KINSAC PARK", "featTypes":["GENERAL PLAYGROUND","BASEBALL","BASEBALL","BASEBALL","MODULER RAMPS","BASKETBALL COURT","DIRT JUMP"], "area":3.748, "static":{"Activities":6,"Kids":1,"Watersports":0},"clusters":{"1":0.49797600,"2":0.08602688,"3":0.20004300,"4":0.17260750,"5":0.04334672},"features":[226,287,445,471,883,884,1073,2888],"description":"","imgSrc":[],"location":{"latitude":44.85270528,"longitude":-63.68421231,"address":"16-46 Douglas Drive, Beaver Bank, NS B4G 1C5, Canada"}}
{"type":"park", "_id":2616, "name":"CANTERBURY LANE PARK", "featTypes":[""], "area":2.911, "static":{"Activities":0,"Kids":0,"Watersports":0},"clusters":{"1":0.01938433,"2":0.00253868,"3":0.05312968,"4":0.92372860,"5":0.00121866},"features":[],"description":"","imgSrc":[],"location":{"latitude":44.78826427,"longitude":-63.62156515,"address":""}}
{"type":"park", "_id":339, "name":"SOUTH WOODSIDE SCHOOL PARK", "featTypes":["GENERAL PLAYGROUND"], "area":0.055, "static":{"Activities":0,"Kids":1,"Watersports":0},"clusters":{"1":0.02581870,"2":0.00245992,"3":0.90209220,"4":0.06824242,"5":0.00138673},"features":[162],"description":"","imgSrc":[],"location":{"latitude":44.64496865,"longitude":-63.54219385,"address":"527-533 Pleasant Street, Dartmouth, NS B2W 1A4, Canada"}}
{"type":"park", "_id":5127, "name":"GRAHAM CREIGHTON JUNIOR HIGH SCHOOL PARK", "featTypes":["BASKETBALL COURT","SOCCER"], "area":2.965, "static":{"Activities":2,"Kids":0,"Watersports":0},"clusters":{"1":0.52294490,"2":0.01808288,"3":0.18580460,"4":0.26483850,"5":0.00832915},"features":[11,464],"description":"","imgSrc":[],"location":{"latitude":44.70383781,"longitude":-63.47520851,"address":""}}
{"type":"park", "_id":5117, "name":"DUNCAN MACMILLAN HIGH SCHOOL PARK", "featTypes":["SOCCER","BASKETBALL COURT"], "area":3.303, "static":{"Activities":2,"Kids":0,"Watersports":0},"clusters":{"1":0.52901300,"2":0.01847325,"3":0.18372900,"4":0.26044630,"5":0.00833851},"features":[419,747],"description":"","imgSrc":[],"location":{"latitude":44.91673393,"longitude":-62.521719,"address":"Mary Elizabeth Drive, Sheet Harbour, NS B0J 3B0, Canada"}}
{"type":"park", "_id":332, "name":"SAMUEL R BALCOLM COMMUNITY CENTRE", "featTypes":["GENERAL PLAYGROUND","PLAYFIELD"], "area":2.134, "static":{"Activities":0,"Kids":2,"Watersports":0},"clusters":{"1":0.17405580,"2":0.02387659,"3":0.62564130,"4":0.16383840,"5":0.01258788},"features":[954,1010],"description":"","imgSrc":[],"location":{"latitude":44.90928265,"longitude":-62.37573785,"address":"32-392 Smileys Point Road, Port Dufferin, NS B0J 2R0, Canada"}}
{"type":"park", "_id":5124, "name":"GREENFOREST PARK", "featTypes":[""], "area":0.975, "static":{"Activities":0,"Kids":0,"Watersports":0},"clusters":{"1":0.00147543,"2":0.00018128,"3":0.00446280,"4":0.99378360,"5":0.00009690},"features":[],"description":"","imgSrc":[],"location":{"latitude":44.81651765,"longitude":-63.69420818,"address":""}}
{"type":"park", "_id":5138, "name":"COLUMBUS PLACE PARK", "featTypes":[""], "area":0.207, "static":{"Activities":0,"Kids":0,"Watersports":0},"clusters":{"1":0.00757238,"2":0.00092041,"3":0.02315055,"4":0.96784440,"5":0.00051225},"features":[],"description":"","imgSrc":[],"location":{"latitude":0,"longitude":0,"address":""}}
{"type":"park", "_id":5137, "name":"MERKEL PLACE PARK", "featTypes":[""], "area":0.215, "static":{"Activities":0,"Kids":0,"Watersports":0},"clusters":{"1":0.00747561,"2":0.00090871,"3":0.02285409,"4":0.96825610,"5":0.00050553},"features":[],"description":"","imgSrc":[],"location":{"latitude":44.66495215,"longitude":-63.60493244,"address":""}}
{"type":"park", "_id":5136, "name":"CABOT PLACE PARK", "featTypes":[""], "area":0.205, "static":{"Activities":0,"Kids":0,"Watersports":0},"clusters":{"1":0.00759667,"2":0.00092334,"3":0.02322496,"4":0.96774110,"5":0.00051394},"features":[],"description":"","imgSrc":[],"location":{"latitude":44.66548721,"longitude":-63.60573518,"address":""}}
{"type":"park", "_id":5135, "name":"SEBASTIAN PLACE PARK", "featTypes":[""], "area":0.202, "static":{"Activities":0,"Kids":0,"Watersports":0},"clusters":{"1":0.00763317,"2":0.00092775,"3":0.02333679,"4":0.96758580,"5":0.00051647},"features":[],"description":"","imgSrc":[],"location":{"latitude":44.66602045,"longitude":-63.60653661,"address":""}}
{"type":"park", "_id":1905, "name":"RADCLIFFE DRIVE PARK", "featTypes":[""], "area":0.629, "static":{"Activities":0,"Kids":0,"Watersports":0},"clusters":{"1":0.00337812,"2":0.00041265,"3":0.01028825,"4":0.98569630,"5":0.00022467},"features":[],"description":"","imgSrc":[],"location":{"latitude":0,"longitude":0,"address":""}}
{"type":"park", "_id":5133, "name":"GREENPARK CLOSE PARK", "featTypes":[""], "area":2.524, "static":{"Activities":0,"Kids":0,"Watersports":0},"clusters":{"1":0.01218764,"2":0.00156889,"3":0.03432662,"4":0.95114680,"5":0.00077006},"features":[],"description":"","imgSrc":[],"location":{"latitude":44.64875595,"longitude":-63.66708257,"address":""}}
{"type":"park", "_id":5132, "name":"SHEET HARBOUR LIONS PARK", "featTypes":["BOAT LAUNCH LARGE","GENERAL PLAYGROUND"], "area":0.196, "static":{"Activities":0,"Kids":1,"Watersports":1},"clusters":{"1":0.02467359,"2":0.01833783,"3":0.02607763,"4":0.02541231,"5":0.90549860},"features":[124,126,481],"description":"","imgSrc":[],"location":{"latitude":44.91725518,"longitude":-62.52939086,"address":""}}
{"type":"park", "_id":5131, "name":"LUCY COURT PARK", "featTypes":["GENERAL PLAYGROUND"], "area":0.251, "static":{"Activities":0,"Kids":1,"Watersports":0},"clusters":{"1":0.02312988,"2":0.00220193,"3":0.91244240,"4":0.06099680,"5":0.00122900},"features":[32],"description":"","imgSrc":[],"location":{"latitude":44.77598844,"longitude":-63.70655362,"address":""}}
{"type":"park", "_id":5110, "name":"SUSSEX DRIVE PARK", "featTypes":["GENERAL PLAYGROUND"], "area":0.793, "static":{"Activities":0,"Kids":1,"Watersports":0},"clusters":{"1":0.01793942,"2":0.00170901,"3":0.93267970,"4":0.04674430,"5":0.00092756},"features":[3217],"description":"","imgSrc":[],"location":{"latitude":0,"longitude":0,"address":""}}
{"type":"park", "_id":855, "name":"CALEDONIA ROAD PARK", "featTypes":[""], "area":0.181, "static":{"Activities":0,"Kids":0,"Watersports":0},"clusters":{"1":0.00789114,"2":0.00095893,"3":0.02412692,"4":0.96648860,"5":0.00053440},"features":[],"description":"","imgSrc":[],"location":{"latitude":44.69260857,"longitude":-63.53343048,"address":""}}
{"type":"park", "_id":857, "name":"ROLEIKA DRIVE PARK", "featTypes":["GENERAL PLAYGROUND"], "area":0.211, "static":{"Activities":0,"Kids":1,"Watersports":0},"clusters":{"1":0.02364724,"2":0.00225146,"3":0.91044660,"4":0.06239554,"5":0.00125920},"features":[726],"description":"","imgSrc":[],"location":{"latitude":44.69020465,"longitude":-63.53145974,"address":"95 Caledonia Road, Dartmouth, NS B2X 1K9, Canada"}}
{"type":"park", "_id":3239, "name":"UNNAMED PARK", "featTypes":[""], "area":6.026, "static":{"Activities":0,"Kids":0,"Watersports":0},"clusters":{"1":0.10398900,"2":0.01703813,"3":0.21275960,"4":0.65947000,"5":0.00674327},"features":[],"description":"","imgSrc":[],"location":{"latitude":44.50711848,"longitude":-63.54815621,"address":""}}
{"type":"park", "_id":6, "name":"SIR SANDFORD FLEMING PARK", "featTypes":["WHARF","BOAT LAUNCH LARGE","GENERAL PLAYGROUND"], "area":50.708, "static":{"Activities":0,"Kids":1,"Watersports":2},"clusters":{"1":0.14323420,"2":0.20414980,"3":0.14105620,"4":0.14022440,"5":0.37133540},"features":[127,128,129,247,1169],"description":"","imgSrc":[],"location":{"latitude":44.62275144,"longitude":-63.60875466,"address":""}}
{"type":"park", "_id":5119, "name":"HATCHET LAKE PARK", "featTypes":["BASEBALL"], "area":0.713, "static":{"Activities":1,"Kids":0,"Watersports":0},"clusters":{"1":0.13481760,"2":0.00885999,"3":0.18966140,"4":0.66197700,"5":0.00468400},"features":[695],"description":"","imgSrc":[],"location":{"latitude":0,"longitude":0,"address":""}}
{"type":"park", "_id":91, "name":"SHORE ROAD LANDS", "featTypes":[""], "area":1.867, "static":{"Activities":0,"Kids":0,"Watersports":0},"clusters":{"1":0.00381829,"2":0.00047984,"3":0.01117173,"4":0.98428580,"5":0.00024438},"features":[],"description":"","imgSrc":[],"location":{"latitude":0,"longitude":0,"address":""}}
{"type":"park", "_id":90, "name":"COW BAY LAKE PARK", "featTypes":["BOAT LAUNCH LARGE"], "area":0.258, "static":{"Activities":0,"Kids":0,"Watersports":1},"clusters":{"1":0.01794259,"2":0.01364434,"3":0.01879387,"4":0.01922390,"5":0.93039530},"features":[835],"description":"","imgSrc":[],"location":{"latitude":44.61494952,"longitude":-63.43159709,"address":"1284-1290 Cow Bay Road, Cow Bay, NS B3G, Canada"}}
{"type":"park", "_id":93, "name":"SHORE ROAD POND LANDS", "featTypes":[""], "area":0.21, "static":{"Activities":0,"Kids":0,"Watersports":0},"clusters":{"1":0.00753602,"2":0.00091601,"3":0.02303916,"4":0.96799910,"5":0.00050972},"features":[],"description":"","imgSrc":[],"location":{"latitude":44.60284283,"longitude":-63.47666052,"address":""}}
{"type":"park", "_id":5182, "name":"LETHBRIDGE AVENUE PARK", "featTypes":[""], "area":0.091, "static":{"Activities":0,"Kids":0,"Watersports":0},"clusters":{"1":0.00904387,"2":0.00109819,"3":0.02765473,"4":0.96158840,"5":0.00061485},"features":[],"description":"","imgSrc":[],"location":{"latitude":44.70821608,"longitude":-63.5428309,"address":""}}
{"type":"park", "_id":5183, "name":"CLAM HARBOUR ROAD PARK", "featTypes":[""], "area":3.124, "static":{"Activities":0,"Kids":0,"Watersports":0},"clusters":{"1":0.02393881,"2":0.00316819,"3":0.06455019,"4":0.90684070,"5":0.00150210},"features":[],"description":"","imgSrc":[],"location":{"latitude":44.74544806,"longitude":-62.93983745,"address":"500 Nebooktook Walk, Lake Charlotte, NS B0J 1Y0, Canada"}}
{"type":"park", "_id":1621, "name":"JACKLADDER PARK", "featTypes":[""], "area":1.697, "static":{"Activities":0,"Kids":0,"Watersports":0},"clusters":{"1":0.00254476,"2":0.00031815,"3":0.00750565,"4":0.98946790,"5":0.00016356},"features":[],"description":"","imgSrc":[],"location":{"latitude":44.79296126,"longitude":-63.70895694,"address":"2-42 Mulley Court, Middle Sackville, NS B4E 2W8, Canada"}}
{"type":"park", "_id":1620, "name":"TENON DRIVE PARK", "featTypes":[""], "area":0.173, "static":{"Activities":0,"Kids":0,"Watersports":0},"clusters":{"1":0.00799053,"2":0.00097094,"3":0.02443127,"4":0.96606590,"5":0.00054132},"features":[],"description":"","imgSrc":[],"location":{"latitude":0,"longitude":0,"address":""}}
{"type":"park", "_id":1995, "name":"FISH HATCHERY PARK", "featTypes":[""], "area":0.65, "static":{"Activities":0,"Kids":0,"Watersports":0},"clusters":{"1":0.00322108,"2":0.00039359,"3":0.00980684,"4":0.98636440,"5":0.00021406},"features":[],"description":"","imgSrc":[],"location":{"latitude":44.72939418,"longitude":-63.66239105,"address":"Bedford-Sackville Connector Greenway Trail, Bedford, NS B4A, Canada"}}
{"type":"park", "_id":5187, "name":"LAKE CHARLOTTE BOAT LAUNCH", "featTypes":[""], "area":1.607, "static":{"Activities":0,"Kids":0,"Watersports":0},"clusters":{"1":0.00202736,"2":0.00025281,"3":0.00600316,"4":0.99158610,"5":0.00013061},"features":[],"description":"","imgSrc":[],"location":{"latitude":44.76766768,"longitude":-62.95203983,"address":""}}
{"type":"park", "_id":5184, "name":"RIDDING ROAD PARK", "featTypes":["GENERAL PLAYGROUND"], "area":0.096, "static":{"Activities":0,"Kids":1,"Watersports":0},"clusters":{"1":0.02522506,"2":0.00240284,"3":0.90437280,"4":0.06664759,"5":0.00135174},"features":[2891],"description":"","imgSrc":[],"location":{"latitude":44.60906787,"longitude":-63.48514849,"address":"Ridding Road, Eastern Passage, NS B3G, Canada"}}
{"type":"park", "_id":1624, "name":"LOU GODDARD MEMORIAL PARK", "featTypes":["BASEBALL"], "area":0.396, "static":{"Activities":1,"Kids":0,"Watersports":0},"clusters":{"1":0.13447350,"2":0.00890039,"3":0.19241640,"4":0.65942350,"5":0.00478618},"features":[672],"description":"","imgSrc":[],"location":{"latitude":44.66623839,"longitude":-63.61086451,"address":""}}
{"type":"park", "_id":5188, "name":"NADIA DRIVE PARK", "featTypes":["GENERAL PLAYGROUND"], "area":0.489, "static":{"Activities":0,"Kids":1,"Watersports":0},"clusters":{"1":0.02041391,"2":0.00194291,"3":0.92296440,"4":0.05360750,"5":0.00107127},"features":[3216],"description":"","imgSrc":[],"location":{"latitude":44.68179003,"longitude":-63.59486423,"address":""}}
{"type":"park", "_id":1628, "name":"ISLEVILLE PARK", "featTypes":["GENERAL PLAYGROUND","SPRAY POOL"], "area":0.564, "static":{"Activities":0,"Kids":1,"Watersports":1},"clusters":{"1":0.02366790,"2":0.01773701,"3":0.02499255,"4":0.02435434,"5":0.90924820},"features":[1080,1081],"description":"","imgSrc":[],"location":{"latitude":44.66531661,"longitude":-63.60788536,"address":""}}
{"type":"park", "_id":3209, "name":"LOWER PROSPECT ROAD PARK", "featTypes":["GENERAL PLAYGROUND","BASKETBALL COURT"], "area":0.128, "static":{"Activities":1,"Kids":1,"Watersports":0},"clusters":{"1":0.14271530,"2":0.00577466,"3":0.73146490,"4":0.11687860,"5":0.00316664},"features":[652,653],"description":"","imgSrc":[],"location":{"latitude":44.45474414,"longitude":-63.72676777,"address":"2073-2091 Lower Prospect Road, Lower Prospect, NS B3T 1Y8, Canada"}}
{"type":"park", "_id":5083, "name":"ROACHES POND BALLFIELD PARK", "featTypes":[""], "area":6.495, "static":{"Activities":0,"Kids":0,"Watersports":0},"clusters":{"1":0.11704370,"2":0.02008919,"3":0.22847530,"4":0.62668610,"5":0.00770572},"features":[],"description":"","imgSrc":[],"location":{"latitude":44.59488055,"longitude":-63.59997064,"address":""}}
{"type":"park", "_id":3060, "name":"ATLANTIC MEMORIAL ELEMENTARY SCHOOL PARK", "featTypes":["GENERAL PLAYGROUND","SOCCER","BASKETBALL COURT"], "area":2.781, "static":{"Activities":2,"Kids":1,"Watersports":0},"clusters":{"1":0.87753810,"2":0.00402906,"3":0.07907109,"4":0.03747188,"5":0.00188985},"features":[724,725,1157],"description":"","imgSrc":[],"location":{"latitude":44.52272568,"longitude":-63.77783484,"address":"6-14 Kendra Crescent, Halifax, NS B3T, Canada"}}
{"type":"park", "_id":5082, "name":"ROCKINGSTONE HEIGHTS SCHOOL PARK", "featTypes":["GENERAL PLAYGROUND","BASEBALL","FOOTBALL","BASEBALL","BASKETBALL HOOP"], "area":6.34, "static":{"Activities":4,"Kids":1,"Watersports":0},"clusters":{"1":0.69453120,"2":0.03961533,"3":0.14059280,"4":0.10949720,"5":0.01576346},"features":[233,673,679,702,1048],"description":"","imgSrc":[],"location":{"latitude":44.59583229,"longitude":-63.61782011,"address":"Regan Drive, Halifax, NS B3R 1E9, Canada"}}
{"type":"park", "_id":5081, "name":"WILLIAMS LAKE ROAD POCKET PARK", "featTypes":[""], "area":0.069, "static":{"Activities":0,"Kids":0,"Watersports":0},"clusters":{"1":0.00933698,"2":0.00113359,"3":0.02855094,"4":0.96034310,"5":0.00063539},"features":[],"description":"","imgSrc":[],"location":{"latitude":44.61579115,"longitude":-63.61449383,"address":""}}
{"type":"park", "_id":2860, "name":"FLAT LAKE PARK", "featTypes":[""], "area":1.261, "static":{"Activities":0,"Kids":0,"Watersports":0},"clusters":{"1":0.00106044,"2":0.00013108,"3":0.00318125,"4":0.99555820,"5":0.00006900},"features":[312],"description":"","imgSrc":[],"location":{"latitude":44.70378419,"longitude":-63.84968633,"address":""}}
{"type":"park", "_id":2862, "name":"SEABRIGHT PARK", "featTypes":[""], "area":0.592, "static":{"Activities":0,"Kids":0,"Watersports":0},"clusters":{"1":0.00366734,"2":0.00044775,"3":0.01117507,"4":0.98446560,"5":0.00024426},"features":[],"description":"","imgSrc":[],"location":{"latitude":0,"longitude":0,"address":""}}
{"type":"park", "_id":745, "name":"GREGORY DRIVE PARK", "featTypes":[""], "area":0.431, "static":{"Activities":0,"Kids":0,"Watersports":0},"clusters":{"1":0.00510714,"2":0.00062223,"3":0.01559160,"4":0.97833670,"5":0.00034231},"features":[],"description":"","imgSrc":[],"location":{"latitude":44.68473037,"longitude":-63.49881552,"address":""}}
{"type":"park", "_id":746, "name":"MOUNT EDWARD PARK", "featTypes":["BASEBALL","BASEBALL","DIRT JUMP","BASKETBALL COURT","BASKETBALL HOOP","TENNIS"], "area":11.068, "static":{"Activities":6,"Kids":0,"Watersports":0},"clusters":{"1":0.42977730,"2":0.14113870,"3":0.19043020,"4":0.18887480,"5":0.04977905},"features":[38,278,359,643,759,851,1236],"description":"","imgSrc":[],"location":{"latitude":44.68470242,"longitude":-63.51601094,"address":""}}
{"type":"park", "_id":5067, "name":"SEAVIEW LOOKOFF PARK", "featTypes":[""], "area":2.374, "static":{"Activities":0,"Kids":0,"Watersports":0},"clusters":{"1":0.00982153,"2":0.00125666,"3":0.02793035,"4":0.96036940,"5":0.00062209},"features":[],"description":"","imgSrc":[],"location":{"latitude":44.67137783,"longitude":-63.6183947,"address":""}}
{"type":"park", "_id":1314, "name":"EVELYN WOOD PLACE PARK", "featTypes":["BASEBALL","GENERAL PLAYGROUND"], "area":1.922, "static":{"Activities":1,"Kids":1,"Watersports":0},"clusters":{"1":0.15916820,"2":0.00577775,"3":0.72525530,"4":0.10692390,"5":0.00287482},"features":[5,500],"description":"","imgSrc":[],"location":{"latitude":44.65865436,"longitude":-63.49570424,"address":""}}
{"type":"park", "_id":2570, "name":"RYAN ROSEN PARK", "featTypes":["GENERAL PLAYGROUND","SOCCER","BASKETBALL COURT"], "area":1.374, "static":{"Activities":2,"Kids":1,"Watersports":0},"clusters":{"1":0.78349450,"2":0.00636549,"3":0.14134340,"4":0.06556415,"5":0.00323243},"features":[234,976,1213],"description":"","imgSrc":[],"location":{"latitude":44.80073706,"longitude":-63.63646331,"address":""}}
{"type":"park", "_id":2459, "name":"CARMEL CRESCENT PARK", "featTypes":["GENERAL PLAYGROUND"], "area":0.855, "static":{"Activities":0,"Kids":1,"Watersports":0},"clusters":{"1":0.01758378,"2":0.00167575,"3":0.93410410,"4":0.04572980,"5":0.00090656},"features":[649],"description":"","imgSrc":[],"location":{"latitude":44.72412937,"longitude":-63.84302662,"address":""}}
{"type":"park", "_id":3064, "name":"BRENNANS ROAD PARK", "featTypes":[""], "area":0.259, "static":{"Activities":0,"Kids":0,"Watersports":0},"clusters":{"1":0.00695461,"2":0.00084573,"3":0.02125748,"4":0.97047270,"5":0.00046943},"features":[],"description":"","imgSrc":[],"location":{"latitude":44.50549555,"longitude":-63.79074521,"address":""}}
{"type":"park", "_id":3068, "name":"TERENCE BAY ROAD PARK", "featTypes":["BOAT LAUNCH LARGE"], "area":0.868, "static":{"Activities":0,"Kids":0,"Watersports":1},"clusters":{"1":0.01628757,"2":0.01256017,"3":0.01703548,"4":0.01742502,"5":0.93669180},"features":[651],"description":"","imgSrc":[],"location":{"latitude":44.49353066,"longitude":-63.73242334,"address":""}}
{"type":"park", "_id":1051, "name":"FLANDRUM HILL ROAD PARK", "featTypes":["GENERAL PLAYGROUND"], "area":1.194, "static":{"Activities":0,"Kids":1,"Watersports":0},"clusters":{"1":0.01660019,"2":0.00158698,"3":0.93833290,"4":0.04263658,"5":0.00084332},"features":[558],"description":"","imgSrc":[],"location":{"latitude":44.62983296,"longitude":-63.42808532,"address":"2-12 Flandrum Hill Road, Cow Bay, NS B3G 1K5, Canada"}}
{"type":"park", "_id":3348, "name":"WHITE HILLS PARK", "featTypes":["GENERAL PLAYGROUND"], "area":11.863, "static":{"Activities":0,"Kids":1,"Watersports":0},"clusters":{"1":0.24882640,"2":0.07187471,"3":0.38348710,"4":0.27708380,"5":0.01872800},"features":[604],"description":"","imgSrc":[],"location":{"latitude":0,"longitude":0,"address":""}}
{"type":"park", "_id":1053, "name":"SPRUCE DRIVE PARK", "featTypes":[""], "area":0.371, "static":{"Activities":0,"Kids":0,"Watersports":0},"clusters":{"1":0.00571651,"2":0.00069599,"3":0.01746093,"4":0.97574250,"5":0.00038408},"features":[],"description":"","imgSrc":[],"location":{"latitude":44.62499776,"longitude":-63.44081309,"address":""}}
{"type":"park", "_id":2340, "name":"HONEYSUCKLE ROAD PARK", "featTypes":[""], "area":1.462, "static":{"Activities":0,"Kids":0,"Watersports":0},"clusters":{"1":0.00142444,"2":0.00017694,"3":0.00424271,"4":0.99406380,"5":0.00009210},"features":[],"description":"","imgSrc":[],"location":{"latitude":44.81769838,"longitude":-63.71522941,"address":""}}
{"type":"park", "_id":2342, "name":"CHANI DRIVE PARK", "featTypes":[""], "area":1.816, "static":{"Activities":0,"Kids":0,"Watersports":0},"clusters":{"1":0.00339588,"2":0.00042608,"3":0.00996061,"4":0.98599980,"5":0.00021761},"features":[],"description":"","imgSrc":[],"location":{"latitude":44.81038885,"longitude":-63.70983404,"address":""}}
{"type":"park", "_id":3343, "name":"SANDWICK DRIVE PARK", "featTypes":[""], "area":0.863, "static":{"Activities":0,"Kids":0,"Watersports":0},"clusters":{"1":0.00192844,"2":0.00023645,"3":0.00584817,"4":0.99185980,"5":0.00012716},"features":[151],"description":"","imgSrc":[],"location":{"latitude":44.77535143,"longitude":-63.75827827,"address":""}}
{"type":"park", "_id":2224, "name":"LAKEVIEW PARK", "featTypes":["GENERAL PLAYGROUND","BASKETBALL HOOP"], "area":2.796, "static":{"Activities":1,"Kids":1,"Watersports":0},"clusters":{"1":0.19180860,"2":0.00690985,"3":0.68032310,"4":0.11768870,"5":0.00326974},"features":[729,889],"description":"","imgSrc":[],"location":{"latitude":44.76024839,"longitude":-63.63003298,"address":""}}
{"type":"park", "_id":5149, "name":"NELSON WHYNDER ELEMENTARY SCHOOL PARK", "featTypes":["GENERAL PLAYGROUND"], "area":0.685, "static":{"Activities":0,"Kids":1,"Watersports":0},"clusters":{"1":0.01868243,"2":0.00177890,"3":0.92973760,"4":0.04883015,"5":0.00097094},"features":[580],"description":"","imgSrc":[],"location":{"latitude":44.74242709,"longitude":-63.46465466,"address":"967-979 North Preston Road, North Preston, NS B2Z 1A2, Canada"}}
{"type":"park", "_id":5159, "name":"MUSQUODOBOIT VALLEY EDUCATION CENTRE PARK", "featTypes":["SOCCER"], "area":10.848, "static":{"Activities":1,"Kids":0,"Watersports":0},"clusters":{"1":0.31387270,"2":0.06202653,"3":0.25728920,"4":0.35038060,"5":0.01643094},"features":[285],"description":"","imgSrc":[],"location":{"latitude":45.04976808,"longitude":-63.13964138,"address":""}}
{"type":"park", "_id":1693, "name":"LARRY OCONNELL PARK", "featTypes":["BASEBALL","TENNIS","GENERAL PLAYGROUND","TENNIS"], "area":1.115, "static":{"Activities":3,"Kids":1,"Watersports":0},"clusters":{"1":0.83342450,"2":0.00996974,"3":0.09134725,"4":0.06009788,"5":0.00516063},"features":[34,36,192,201],"description":"","imgSrc":[],"location":{"latitude":44.64518015,"longitude":-63.60931494,"address":"2425-2525 Armcrescent East Drive, Halifax, NS B3L, Canada"}}
{"type":"park", "_id":1691, "name":"SAUNDERS PARK", "featTypes":[""], "area":2.481, "static":{"Activities":0,"Kids":0,"Watersports":0},"clusters":{"1":0.01148365,"2":0.00147565,"3":0.03243508,"4":0.95387960,"5":0.00072607},"features":[],"description":"","imgSrc":[],"location":{"latitude":44.64583499,"longitude":-63.61461104,"address":"6820 Chebucto Road, Halifax, NS B3L, Canada"}}
{"type":"park", "_id":2674, "name":"CAMERON PARK", "featTypes":["DIRT JUMP"], "area":0.406, "static":{"Activities":1,"Kids":0,"Watersports":0},"clusters":{"1":0.13447080,"2":0.00889794,"3":0.19231430,"4":0.65953470,"5":0.00478231},"features":[289],"description":"","imgSrc":[],"location":{"latitude":44.86324913,"longitude":-63.61661332,"address":""}}
{"type":"park", "_id":1279, "name":"CRANBERRY LAKE PARK", "featTypes":["BASKETBALL COURT","GENERAL PLAYGROUND"], "area":7.488, "static":{"Activities":1,"Kids":1,"Watersports":0},"clusters":{"1":0.36806750,"2":0.02409516,"3":0.40686890,"4":0.19255890,"5":0.00840953},"features":[763,3569],"description":"","imgSrc":[],"location":{"latitude":44.68509195,"longitude":-63.50020638,"address":""}}
{"type":"park", "_id":143, "name":"GREELY COURT PARK", "featTypes":["GENERAL PLAYGROUND"], "area":0.338, "static":{"Activities":0,"Kids":1,"Watersports":0},"clusters":{"1":0.02206344,"2":0.00210002,"3":0.91656400,"4":0.05810562,"5":0.00116691},"features":[488],"description":"","imgSrc":[],"location":{"latitude":44.69096071,"longitude":-63.496125,"address":"118-130 Forest Hills Parkway, Dartmouth, NS B2W 5B3, Canada"}}
{"type":"park", "_id":140, "name":"CLEMENT STREET PARK", "featTypes":["GENERAL PLAYGROUND","BASKETBALL COURT"], "area":0.41, "static":{"Activities":1,"Kids":1,"Watersports":0},"clusters":{"1":0.14118580,"2":0.00558119,"3":0.73802520,"4":0.11219210,"5":0.00301566},"features":[73,834],"description":"","imgSrc":[],"location":{"latitude":44.66464503,"longitude":-63.54703046,"address":""}}
{"type":"park", "_id":617, "name":"ELDERBANK PARK", "featTypes":["GENERAL PLAYGROUND","BASEBALL","BASKETBALL COURT"], "area":0.594, "static":{"Activities":2,"Kids":1,"Watersports":0},"clusters":{"1":0.71634760,"2":0.00804432,"3":0.18507080,"4":0.08627734,"5":0.00425999},"features":[175,345,781],"description":"","imgSrc":[],"location":{"latitude":0,"longitude":0,"address":""}}
{"type":"park", "_id":2854, "name":"LAKESHORE DRIVE PARK", "featTypes":[""], "area":5.499, "static":{"Activities":0,"Kids":0,"Watersports":0},"clusters":{"1":0.08888743,"2":0.01387565,"3":0.19183420,"4":0.69971860,"5":0.00568418},"features":[],"description":"","imgSrc":[],"location":{"latitude":44.70424013,"longitude":-63.74191028,"address":""}}
{"type":"park", "_id":3349, "name":"WESTPOINT DRIVE PARK", "featTypes":[""], "area":0.605, "static":{"Activities":0,"Kids":0,"Watersports":0},"clusters":{"1":0.00356391,"2":0.00043520,"3":0.01085790,"4":0.98490570,"5":0.00023725},"features":[],"description":"","imgSrc":[],"location":{"latitude":44.76804876,"longitude":-63.74155681,"address":""}}
{"type":"park", "_id":1889, "name":"BELCHERS MARSH PARK", "featTypes":[""], "area":12.478, "static":{"Activities":0,"Kids":0,"Watersports":0},"clusters":{"1":0.22457540,"2":0.08648119,"3":0.28065850,"4":0.38728220,"5":0.02100273},"features":[],"description":"","imgSrc":[],"location":{"latitude":44.66353126,"longitude":-63.67792745,"address":"Bicentennial Highway, Halifax, NS B3S 1C9, Canada"}}
{"type":"park", "_id":1885, "name":"DEVONSHIRE/BARRINGTON PARKETTE", "featTypes":[""], "area":0.051, "static":{"Activities":0,"Kids":0,"Watersports":0},"clusters":{"1":0.00958003,"2":0.00116295,"3":0.02929378,"4":0.95931080,"5":0.00065244},"features":[],"description":"","imgSrc":[],"location":{"latitude":44.66410653,"longitude":-63.59455947,"address":"3030 Devonshire Avenue, Halifax, NS B3K, Canada"}}
{"type":"park", "_id":1285, "name":"LANGDON DRIVE PARK", "featTypes":[""], "area":0.479, "static":{"Activities":0,"Kids":0,"Watersports":0},"clusters":{"1":0.00464765,"2":0.00056658,"3":0.01418196,"4":0.98029290,"5":0.00031091},"features":[],"description":"","imgSrc":[],"location":{"latitude":44.69135213,"longitude":-63.50106756,"address":"1-17 Langdon Drive, Dartmouth, NS B2W 5C3, Canada"}}
{"type":"park", "_id":3119, "name":"LEE MURPHY CRESCENT PARK", "featTypes":[""], "area":0.826, "static":{"Activities":0,"Kids":0,"Watersports":0},"clusters":{"1":0.00211297,"2":0.00025891,"3":0.00641275,"4":0.99107590,"5":0.00013951},"features":[],"description":"","imgSrc":[],"location":{"latitude":44.52430498,"longitude":-63.64557514,"address":""}}
{"type":"park", "_id":1282, "name":"ALPINE DRIVE PARK", "featTypes":[""], "area":0.084, "static":{"Activities":0,"Kids":0,"Watersports":0},"clusters":{"1":0.00913666,"2":0.00110940,"3":0.02793848,"4":0.96119410,"5":0.00062135},"features":[],"description":"","imgSrc":[],"location":{"latitude":44.66816396,"longitude":-63.50950575,"address":"1-23 Alpine Drive, Dartmouth, NS B2W 1Z4, Canada"}}
{"type":"park", "_id":3114, "name":"SARAH INGRAHAM DRIVE PARK", "featTypes":[""], "area":0.624, "static":{"Activities":0,"Kids":0,"Watersports":0},"clusters":{"1":0.00341627,"2":0.00041728,"3":0.01040522,"4":0.98553400,"5":0.00022725},"features":[],"description":"","imgSrc":[],"location":{"latitude":44.53683223,"longitude":-63.65545419,"address":""}}
{"type":"park", "_id":942, "name":"BRAEMAR DRIVE PARK", "featTypes":[""], "area":0.054, "static":{"Activities":0,"Kids":0,"Watersports":0},"clusters":{"1":0.00953932,"2":0.00115803,"3":0.02916938,"4":0.95948370,"5":0.00064958},"features":[],"description":"","imgSrc":[],"location":{"latitude":44.68689628,"longitude":-63.54745086,"address":"105-119 Nova Scotia 318, Dartmouth, NS B2X 2B7, Canada"}}
{"type":"park", "_id":3112, "name":"WENDYS MEADOW PARK", "featTypes":[""], "area":1.957, "static":{"Activities":0,"Kids":0,"Watersports":0},"clusters":{"1":0.00464704,"2":0.00058570,"3":0.01353460,"4":0.98093590,"5":0.00029681},"features":[],"description":"","imgSrc":[],"location":{"latitude":44.53904516,"longitude":-63.70647198,"address":""}}
{"type":"park", "_id":3111, "name":"LOVERS COVE PARK", "featTypes":[""], "area":0.645, "static":{"Activities":0,"Kids":0,"Watersports":0},"clusters":{"1":0.00325800,"2":0.00039807,"3":0.00992001,"4":0.98620740,"5":0.00021655},"features":[662],"description":"","imgSrc":[],"location":{"latitude":44.54372374,"longitude":-63.71068995,"address":""}}
{"type":"park", "_id":941, "name":"OWLS NEST ISLAND", "featTypes":[""], "area":0.633, "static":{"Activities":0,"Kids":0,"Watersports":0},"clusters":{"1":0.00334781,"2":0.00040897,"3":0.01019532,"4":0.98582530,"5":0.00022262},"features":[],"description":"","imgSrc":[],"location":{"latitude":44.68799512,"longitude":-63.55180835,"address":""}}
{"type":"park", "_id":1473, "name":"NORTH GREEN ROAD PARK", "featTypes":[""], "area":0.109, "static":{"Activities":0,"Kids":0,"Watersports":0},"clusters":{"1":0.00880731,"2":0.00106962,"3":0.02693119,"4":0.96259360,"5":0.00059830},"features":[],"description":"","imgSrc":[],"location":{"latitude":44.64011354,"longitude":-63.70043646,"address":"55-101 North Green Road, Lakeside, NS B3T 2L6, Canada"}}
{"type":"park", "_id":3402, "name":"MICMAC DRIVE PARK", "featTypes":["GENERAL PLAYGROUND","BASKETBALL COURT"], "area":1.256, "static":{"Activities":1,"Kids":1,"Watersports":0},"clusters":{"1":0.14512850,"2":0.00541779,"3":0.74166400,"4":0.10499240,"5":0.00279730},"features":[991,1249],"description":"","imgSrc":[],"location":{"latitude":44.74197458,"longitude":-63.79212446,"address":""}}
{"type":"park", "_id":1475, "name":"PARKDALE PARK", "featTypes":["GENERAL PLAYGROUND"], "area":0.095, "static":{"Activities":0,"Kids":1,"Watersports":0},"clusters":{"1":0.02523935,"2":0.00240421,"3":0.90431780,"4":0.06668601,"5":0.00135258},"features":[1183],"description":"","imgSrc":[],"location":{"latitude":44.63966999,"longitude":-63.71449925,"address":"60-74 Parkdale Avenue, Timberlea, NS B3T 2H6, Canada"}}
{"type":"park", "_id":684, "name":"EMERALD ESTATES PARK", "featTypes":[""], "area":0.595, "static":{"Activities":0,"Kids":0,"Watersports":0},"clusters":{"1":0.00364330,"2":0.00044483,"3":0.01110134,"4":0.98456790,"5":0.00024263},"features":[],"description":"","imgSrc":[],"location":{"latitude":44.64656501,"longitude":-63.31198463,"address":"1-23 Emerald Drive, Head of Chezzetcook, NS B0J 1N0, Canada"}}
{"type":"park", "_id":687, "name":"GREEN MEADOWS PARK", "featTypes":[""], "area":0.171, "static":{"Activities":0,"Kids":0,"Watersports":0},"clusters":{"1":0.00801547,"2":0.00097395,"3":0.02450764,"4":0.96595990,"5":0.00054305},"features":[],"description":"","imgSrc":[],"location":{"latitude":44.63842028,"longitude":-63.30232068,"address":"9-135 Spruce Court, Head of Chezzetcook, NS B0J 1N0, Canada"}}
{"type":"park", "_id":5173, "name":"WILLIAM ROSS PARK", "featTypes":[""], "area":0.972, "static":{"Activities":0,"Kids":0,"Watersports":0},"clusters":{"1":0.00148547,"2":0.00018250,"3":0.00449351,"4":0.99374090,"5":0.00009760},"features":[],"description":"","imgSrc":[],"location":{"latitude":44.69954981,"longitude":-63.48242612,"address":"946 Main Street, Halifax, NS B2W 3V3, Canada"}}
{"type":"park", "_id":1305, "name":"COUNTRY LAKE DRIVE PARK", "featTypes":[""], "area":1.092, "static":{"Activities":0,"Kids":0,"Watersports":0},"clusters":{"1":0.00117507,"2":0.00014471,"3":0.00354332,"4":0.99506000,"5":0.00007690},"features":[],"description":"","imgSrc":[],"location":{"latitude":44.72319168,"longitude":-63.38506311,"address":""}}
{"type":"park", "_id":5171, "name":"BIRCH HILL LAKE PARK", "featTypes":[""], "area":3.775, "static":{"Activities":0,"Kids":0,"Watersports":0},"clusters":{"1":0.03987169,"2":0.00547266,"3":0.10176650,"4":0.85039270,"5":0.00249643},"features":[],"description":"","imgSrc":[],"location":{"latitude":0,"longitude":0,"address":""}}
{"type":"park", "_id":2658, "name":"TURTLE MARSH PARK", "featTypes":[""], "area":1.307, "static":{"Activities":0,"Kids":0,"Watersports":0},"clusters":{"1":0.00109550,"2":0.00013556,"3":0.00328138,"4":0.99541640,"5":0.00007120},"features":[],"description":"","imgSrc":[],"location":{"latitude":44.78684306,"longitude":-63.66079526,"address":""}}
{"type":"park", "_id":5177, "name":"SHEARWATER FLYER TRAIL PARK", "featTypes":["TRAILHEAD"], "area":34.188, "static":{"Activities":1,"Kids":0,"Watersports":0},"clusters":{"1":0.03606242,"2":0.88830890,"3":0.03162253,"4":0.03269508,"5":0.01131103},"features":[2882],"description":"","imgSrc":[],"location":{"latitude":44.62230126,"longitude":-63.5113163,"address":""}}
{"type":"park", "_id":5176, "name":"GLADSTONE RIDGE PARK", "featTypes":[""], "area":0.158, "static":{"Activities":0,"Kids":0,"Watersports":0},"clusters":{"1":0.00817852,"2":0.00099365,"3":0.02500686,"4":0.96526660,"5":0.00055441},"features":[],"description":"","imgSrc":[],"location":{"latitude":44.65364245,"longitude":-63.59832056,"address":"2677 Gladstone Street, Halifax, NS B3K 5C7, Canada"}}
{"type":"park", "_id":1302, "name":"DUTCH SETTLEMENT PARK", "featTypes":["BASEBALL"], "area":2.412, "static":{"Activities":1,"Kids":0,"Watersports":0},"clusters":{"1":0.15348060,"2":0.01010549,"3":0.19254140,"4":0.63901680,"5":0.00485580},"features":[444],"description":"","imgSrc":[],"location":{"latitude":44.98439006,"longitude":-63.43676502,"address":""}}
{"type":"park", "_id":5174, "name":"MALAY FALLS BEACH PARK", "featTypes":["BEACH"], "area":0.617, "static":{"Activities":0,"Kids":0,"Watersports":1},"clusters":{"1":0.01693359,"2":0.01298292,"3":0.01772183,"4":0.01812720,"5":0.93423450},"features":[2561],"description":"","imgSrc":[],"location":{"latitude":44.99438149,"longitude":-62.48313954,"address":""}}
{"type":"park", "_id":2652, "name":"TAYLOR DRIVE PARK", "featTypes":["GENERAL PLAYGROUND","PLAYFIELD"], "area":1.523, "static":{"Activities":0,"Kids":2,"Watersports":0},"clusters":{"1":0.17063340,"2":0.02298256,"3":0.63048720,"4":0.16340470,"5":0.01249215},"features":[258,440],"description":"","imgSrc":[],"location":{"latitude":44.79543653,"longitude":-63.65416432,"address":"228 Taylor Drive, Windsor Junction, NS B2T 1L7, Canada"}}
{"type":"park", "_id":5179, "name":"STONINGTON PARK", "featTypes":[""], "area":3.363, "static":{"Activities":0,"Kids":0,"Watersports":0},"clusters":{"1":0.02947364,"2":0.00395016,"3":0.07795198,"4":0.88677750,"5":0.00184673},"features":[],"description":"","imgSrc":[],"location":{"latitude":44.71721714,"longitude":-63.70448227,"address":"Lowther Lane, Bedford, NS B4B 1G9, Canada"}}
{"type":"park", "_id":5178, "name":"ECOLE SECONDAIRE DU SOMMET PARK", "featTypes":["SOCCER"], "area":6.808, "static":{"Activities":1,"Kids":0,"Watersports":0},"clusters":{"1":0.26689450,"2":0.02583268,"3":0.24556110,"4":0.45235890,"5":0.00935286},"features":[2896],"description":"","imgSrc":[],"location":{"latitude":44.69904943,"longitude":-63.68239341,"address":""}}
{"type":"park", "_id":2656, "name":"WINDGATE DRIVE PARK", "featTypes":[""], "area":3.183, "static":{"Activities":0,"Kids":0,"Watersports":0},"clusters":{"1":0.02526592,"2":0.00335396,"3":0.06781067,"4":0.90198480,"5":0.00158470},"features":[],"description":"","imgSrc":[],"location":{"latitude":44.78911417,"longitude":-63.64556388,"address":""}}
{"type":"park", "_id":2654, "name":"DUCK LAKE BROOK GREENWAY PARK", "featTypes":[""], "area":4.609, "static":{"Activities":0,"Kids":0,"Watersports":0},"clusters":{"1":0.06304531,"2":0.00915597,"3":0.14875300,"4":0.77507690,"5":0.00396876},"features":[],"description":"","imgSrc":[],"location":{"latitude":44.79100518,"longitude":-63.66982246,"address":""}}
{"type":"park", "_id":133, "name":"SHUBIE PARK", "featTypes":["BEACH","BASEBALL","WHARF","GENERAL PLAYGROUND","TENNIS","BEACH"], "area":163.543, "static":{"Activities":2,"Kids":1,"Watersports":3},"clusters":{"1":0.17898870,"2":0.23654060,"3":0.17539510,"4":0.17502330,"5":0.23405230},"features":[47,69,98,245,437,619,620,621,1027,1028,1029],"description":"","imgSrc":[],"location":{"latitude":44.68972219,"longitude":-63.562911,"address":""}}
{"type":"park", "_id":131, "name":"WOODSIDE AREA PARK", "featTypes":[""], "area":3.312, "static":{"Activities":0,"Kids":0,"Watersports":0},"clusters":{"1":0.02825821,"2":0.00377681,"3":0.07505300,"4":0.89114100,"5":0.00177101},"features":[],"description":"","imgSrc":[],"location":{"latitude":44.65723455,"longitude":-63.55608856,"address":""}}
{"type":"park", "_id":5079, "name":"C A BECKETT PARK", "featTypes":["HORSESHOE"], "area":0.25, "static":{"Activities":1,"Kids":0,"Watersports":0},"clusters":{"1":0.13460900,"2":0.00894456,"3":0.19401520,"4":0.65758380,"5":0.00484741},"features":[330],"description":"","imgSrc":[],"location":{"latitude":44.63704754,"longitude":-63.63255519,"address":"1-25 Coronet Avenue, Halifax, NS B3N, Canada"}}
{"type":"park", "_id":137, "name":"LAKECREST DRIVE PARK", "featTypes":["BASEBALL","GENERAL PLAYGROUND","BASKETBALL COURT"], "area":1.542, "static":{"Activities":2,"Kids":1,"Watersports":0},"clusters":{"1":0.79723920,"2":0.00602285,"3":0.13230400,"4":0.06140363,"5":0.00303034},"features":[357,815,875],"description":"","imgSrc":[],"location":{"latitude":44.80746932,"longitude":-63.73504503,"address":""}}
{"type":"park", "_id":499, "name":"WENTWORTH STREET PARK", "featTypes":[""], "area":0.024, "static":{"Activities":0,"Kids":0,"Watersports":0},"clusters":{"1":0.00994997,"2":0.00120763,"3":0.03042396,"4":0.95774000,"5":0.00067844},"features":[],"description":"","imgSrc":[],"location":{"latitude":44.66551607,"longitude":-63.56521658,"address":""}}
{"type":"park", "_id":135, "name":"RUSSELL LAKE PARK", "featTypes":[""], "area":16.236, "static":{"Activities":0,"Kids":0,"Watersports":0},"clusters":{"1":0.23461940,"2":0.16918280,"3":0.25638890,"4":0.31081450,"5":0.02899434},"features":[],"description":"","imgSrc":[],"location":{"latitude":44.66015721,"longitude":-63.53155519,"address":""}}
{"type":"park", "_id":134, "name":"OAKFIELD WOODS PARK", "featTypes":[""], "area":4.301, "static":{"Activities":0,"Kids":0,"Watersports":0},"clusters":{"1":0.05426254,"2":0.00770802,"3":0.13190760,"4":0.80271640,"5":0.00340543},"features":[],"description":"","imgSrc":[],"location":{"latitude":44.91047109,"longitude":-63.56002011,"address":""}}
{"type":"park", "_id":494, "name":"WERNER PARK", "featTypes":["GENERAL PLAYGROUND"], "area":0.935, "static":{"Activities":0,"Kids":1,"Watersports":0},"clusters":{"1":0.01720336,"2":0.00164043,"3":0.93565000,"4":0.04462244,"5":0.00088374},"features":[92],"description":"","imgSrc":[],"location":{"latitude":44.69833008,"longitude":-63.38399163,"address":""}}
{"type":"park", "_id":495, "name":"BRUCE DRIVE PARK", "featTypes":["GENERAL PLAYGROUND"], "area":0.102, "static":{"Activities":0,"Kids":1,"Watersports":0},"clusters":{"1":0.02513952,"2":0.00239462,"3":0.90470160,"4":0.06641759,"5":0.00134671},"features":[188],"description":"","imgSrc":[],"location":{"latitude":44.76810231,"longitude":-63.69114111,"address":""}}
{"type":"park", "_id":139, "name":"JASON MACCULLOUGH MEMORIAL PARK", "featTypes":["BASKETBALL COURT","GENERAL PLAYGROUND"], "area":2.769, "static":{"Activities":1,"Kids":1,"Watersports":0},"clusters":{"1":0.19060470,"2":0.00686429,"3":0.68202190,"4":0.11725580,"5":0.00325331},"features":[862,1084],"description":"","imgSrc":[],"location":{"latitude":44.68616651,"longitude":-63.58710138,"address":"Joseph Young Street, Dartmouth, NS B3A, Canada"}}
{"type":"park", "_id":497, "name":"FERRY TERMINAL PARK", "featTypes":["WHARF","WHARF","BOAT LAUNCH LARGE","GENERAL PLAYGROUND"], "area":4.295, "static":{"Activities":0,"Kids":1,"Watersports":3},"clusters":{"1":0.15373710,"2":0.15856540,"3":0.15430600,"4":0.15374700,"5":0.37964450},"features":[111,114,115,117,118,119,551],"description":"","imgSrc":[],"location":{"latitude":44.66262544,"longitude":-63.57216735,"address":""}}
{"type":"park", "_id":5076, "name":"GRANITE COVE DRIVE PARK", "featTypes":[""], "area":0.481, "static":{"Activities":0,"Kids":0,"Watersports":0},"clusters":{"1":0.00462905,"2":0.00056433,"3":0.01412491,"4":0.98037210,"5":0.00030964},"features":[],"description":"","imgSrc":[],"location":{"latitude":44.66365584,"longitude":-63.81429778,"address":""}}
{"type":"park", "_id":491, "name":"BEAVERBROOK PARK", "featTypes":["GENERAL PLAYGROUND","BASKETBALL HOOP"], "area":0.824, "static":{"Activities":1,"Kids":1,"Watersports":0},"clusters":{"1":0.14133790,"2":0.00541859,"3":0.74306290,"4":0.10731660,"5":0.00286401},"features":[817,891],"description":"","imgSrc":[],"location":{"latitude":44.95458105,"longitude":-63.49914315,"address":"1-59 Richard Street, Elmsdale, NS B2S 1L3, Canada"}}
{"type":"park", "_id":492, "name":"HEAD OF JEDDORE PARK", "featTypes":["GENERAL PLAYGROUND","BASKETBALL COURT"], "area":0.661, "static":{"Activities":1,"Kids":1,"Watersports":0},"clusters":{"1":0.14090350,"2":0.00546450,"3":0.74178220,"4":0.10893630,"5":0.00291357},"features":[176,929],"description":"","imgSrc":[],"location":{"latitude":44.77900533,"longitude":-63.07964252,"address":"Marine Drive, Head of Jeddore, NS B0J 1P0, Canada"}}
{"type":"park", "_id":493, "name":"BENNETT PARK", "featTypes":["GENERAL PLAYGROUND","PLAYFIELD","BASKETBALL COURT","TENNIS","VOLLEYBALL"], "area":5.442, "static":{"Activities":3,"Kids":2,"Watersports":0},"clusters":{"1":0.60409230,"2":0.04026178,"3":0.21847470,"4":0.11985940,"5":0.01731179},"features":[484,805,894,895,933,934],"description":"","imgSrc":[],"location":{"latitude":44.70842743,"longitude":-63.39277698,"address":""}}
{"type":"park", "_id":26, "name":"REGATTA POINT PARK", "featTypes":["GENERAL PLAYGROUND"], "area":1.639, "static":{"Activities":0,"Kids":1,"Watersports":0},"clusters":{"1":0.01790788,"2":0.00172412,"3":0.93445200,"4":0.04502141,"5":0.00089458},"features":[105,195,516],"description":"","imgSrc":[],"location":{"latitude":44.63440484,"longitude":-63.61861696,"address":"Regatta Point Walkway, Halifax, NS B3N 1M5, Canada"}}
{"type":"park", "_id":20, "name":"UPPER FLINN PARK", "featTypes":["BASEBALL","GENERAL PLAYGROUND"], "area":2.716, "static":{"Activities":1,"Kids":1,"Watersports":0},"clusters":{"1":0.18827120,"2":0.00677672,"3":0.68531010,"4":0.11642020,"5":0.00322177},"features":[386,559],"description":"","imgSrc":[],"location":{"latitude":0,"longitude":0,"address":""}}
{"type":"park", "_id":3595, "name":"BELMONT AVENUE PARK", "featTypes":[""], "area":0.252, "static":{"Activities":0,"Kids":0,"Watersports":0},"clusters":{"1":0.00703622,"2":0.00085560,"3":0.02150761,"4":0.97012550,"5":0.00047508},"features":[],"description":"","imgSrc":[],"location":{"latitude":44.63565078,"longitude":-63.52702967,"address":""}}
{"type":"park", "_id":22, "name":"ADMIRALS COVE PARK", "featTypes":[""], "area":28.528, "static":{"Activities":0,"Kids":0,"Watersports":0},"clusters":{"1":0.09867348,"2":0.68062820,"3":0.09437268,"4":0.10030910,"5":0.02601653},"features":[],"description":"","imgSrc":[],"location":{"latitude":44.71367775,"longitude":-63.65683164,"address":""}}
{"type":"park", "_id":23, "name":"ALDER PIPER PARK", "featTypes":[""], "area":1.293, "static":{"Activities":0,"Kids":0,"Watersports":0},"clusters":{"1":0.00108181,"2":0.00013382,"3":0.00324190,"4":0.99547210,"5":0.00007030},"features":[],"description":"","imgSrc":[],"location":{"latitude":44.67785187,"longitude":-63.51789998,"address":""}}
{"type":"park", "_id":5039, "name":"CALDWELL ROAD ELEMENTARY SCHOOL PARK", "featTypes":["BASEBALL","BASEBALL","BASEBALL","BASEBALL","GENERAL PLAYGROUND"], "area":3.755, "static":{"Activities":4,"Kids":1,"Watersports":0},"clusters":{"1":0.71390220,"2":0.03097176,"3":0.13634330,"4":0.10452100,"5":0.01426169},"features":[375,377,392,399,507],"description":"","imgSrc":[],"location":{"latitude":44.65955869,"longitude":-63.49337176,"address":"Evelyn Wood Place, Dartmouth, NS B2V, Canada"}}
{"type":"park", "_id":28, "name":"ARNOLD WHITWORTH PARK", "featTypes":["GENERAL PLAYGROUND","BASKETBALL COURT"], "area":0.557, "static":{"Activities":1,"Kids":1,"Watersports":0},"clusters":{"1":0.14088660,"2":0.00550623,"3":0.74047940,"4":0.11017570,"5":0.00295211},"features":[212,791],"description":"","imgSrc":[],"location":{"latitude":0,"longitude":0,"address":""}}
{"type":"park", "_id":29, "name":"BEAUFORT DRIVE PARK", "featTypes":["GENERAL PLAYGROUND"], "area":0.399, "static":{"Activities":0,"Kids":1,"Watersports":0},"clusters":{"1":0.02136550,"2":0.00203346,"3":0.91926780,"4":0.05620682,"5":0.00112640},"features":[222],"description":"","imgSrc":[],"location":{"latitude":44.67202875,"longitude":-63.48899851,"address":"1021-1073 Cole Harbour Road, Cole Harbour, NS B2V, Canada"}}
{"type":"park", "_id":5036, "name":"ALDERNEY ELEMENTARY SCHOOL PARK", "featTypes":["GENERAL PLAYGROUND"], "area":1.384, "static":{"Activities":0,"Kids":1,"Watersports":0},"clusters":{"1":0.01678997,"2":0.00160929,"3":0.93799300,"4":0.04276118,"5":0.00084655},"features":[208],"description":"","imgSrc":[],"location":{"latitude":0,"longitude":0,"address":""}}
{"type":"park", "_id":405, "name":"CHEBUCTO CONNAUGHT PARKETTE", "featTypes":[""], "area":0.03, "static":{"Activities":0,"Kids":0,"Watersports":0},"clusters":{"1":0.00986721,"2":0.00119763,"3":0.03017118,"4":0.95809140,"5":0.00067262},"features":[],"description":"","imgSrc":[],"location":{"latitude":44.64711668,"longitude":-63.6074182,"address":"2585 Connaught Avenue, Halifax, NS B3L 2Z5, Canada"}}
{"type":"park", "_id":404, "name":"SACKVILLE LANDING", "featTypes":["WHARF"], "area":0.368, "static":{"Activities":0,"Kids":0,"Watersports":1},"clusters":{"1":0.01762295,"2":0.01343477,"3":0.01845424,"4":0.01887647,"5":0.93161160},"features":[141],"description":"","imgSrc":[],"location":{"latitude":44.64657289,"longitude":-63.57097329,"address":"lower Water St [northbound] in front of civic address 1601, Halifax, NS B3J, Canada"}}
{"type":"park", "_id":403, "name":"CHEBUCTO LANDING", "featTypes":["WHARF"], "area":0.148, "static":{"Activities":0,"Kids":0,"Watersports":1},"clusters":{"1":0.01827134,"2":0.01385985,"3":0.01914321,"4":0.01958127,"5":0.92914430},"features":[140],"description":"","imgSrc":[],"location":{"latitude":44.64895346,"longitude":-63.57231065,"address":"1769 Upper Water Street, Halifax, NS B3J 1M3, Canada"}}
{"type":"park", "_id":402, "name":"NATHAN GREEN SQUARE", "featTypes":["WHARF"], "area":0.196, "static":{"Activities":0,"Kids":0,"Watersports":1},"clusters":{"1":0.01812677,"2":0.01376509,"3":0.01898958,"4":0.01942411,"5":0.92969440},"features":[138],"description":"","imgSrc":[],"location":{"latitude":0,"longitude":0,"address":""}}
{"type":"park", "_id":401, "name":"HALIFAX NORTH COMMON", "featTypes":["BASEBALL","BASEBALL","BASEBALL","BASEBALL","BASEBALL","BASEBALL","BASEBALL","BASEBALL","RUGBY","CRICKET","GENERAL OUTDOOR RINK","GENERAL OUTDOOR RINK"], "area":11.768, "static":{"Activities":11,"Kids":1,"Watersports":0},"clusters":{"1":0.31134560,"2":0.19389000,"3":0.20163230,"4":0.18959950,"5":0.10353260},"features":[35,62,64,66,68,274,284,293,615,616,3570],"description":"","imgSrc":[],"location":{"latitude":44.64742269,"longitude":-63.59184179,"address":"2080 Windsor Street, Halifax, NS B3K 5B1, Canada"}}
{"type":"park", "_id":400, "name":"WATER STREET PARKETTE", "featTypes":[""], "area":0.123, "static":{"Activities":0,"Kids":0,"Watersports":0},"clusters":{"1":0.00862538,"2":0.00104764,"3":0.02637457,"4":0.96336680,"5":0.00058558},"features":[],"description":"","imgSrc":[],"location":{"latitude":44.64875144,"longitude":-63.5730137,"address":"5151 George Street, Halifax, NS B3J 1M5, Canada"}}
{"type":"park", "_id":5009, "name":"ST MARGARETS BAY ELEMENTARY PARK", "featTypes":["GENERAL PLAYGROUND","SOCCER","BASKETBALL COURT"], "area":5.172, "static":{"Activities":2,"Kids":1,"Watersports":0},"clusters":{"1":0.86961960,"2":0.00582855,"3":0.08008529,"4":0.04210495,"5":0.00236165},"features":[159,160,1164],"description":"","imgSrc":[],"location":{"latitude":44.68895418,"longitude":-63.89740486,"address":""}}
{"type":"park", "_id":409, "name":"GREEN ACRES PARK", "featTypes":["GENERAL PLAYGROUND"], "area":0.117, "static":{"Activities":0,"Kids":1,"Watersports":0},"clusters":{"1":0.02492720,"2":0.00237423,"3":0.90551790,"4":0.06584640,"5":0.00133422},"features":[821],"description":"","imgSrc":[],"location":{"latitude":44.59278123,"longitude":-63.6006722,"address":""}}
{"type":"park", "_id":5035, "name":"GEORGE BISSETT ELEMENTARY SCHOOL PARK", "featTypes":["GENERAL PLAYGROUND","BASKETBALL HOOP"], "area":2.664, "static":{"Activities":1,"Kids":1,"Watersports":0},"clusters":{"1":0.18602150,"2":0.00669325,"3":0.68847390,"4":0.11561960,"5":0.00319175},"features":[572,573],"description":"","imgSrc":[],"location":{"latitude":44.67741703,"longitude":-63.48726622,"address":""}}
{"type":"park", "_id":5160, "name":"ADMIRAL WESTPHAL ELEMENTARY SCHOOL PARK", "featTypes":["GENERAL PLAYGROUND","BASKETBALL COURT"], "area":1.01, "static":{"Activities":1,"Kids":1,"Watersports":0},"clusters":{"1":0.14248210,"2":0.00539629,"3":0.74333570,"4":0.10596220,"5":0.00282376},"features":[206,207],"description":"","imgSrc":[],"location":{"latitude":44.68483182,"longitude":-63.54565231,"address":""}}
{"type":"park", "_id":3065, "name":"HAGES LANE PARK", "featTypes":[""], "area":2.22, "static":{"Activities":0,"Kids":0,"Watersports":0},"clusters":{"1":0.00766243,"2":0.00097467,"3":0.02199457,"4":0.96888160,"5":0.00048671},"features":[],"description":"","imgSrc":[],"location":{"latitude":44.49350763,"longitude":-63.81069225,"address":""}}
{"type":"park", "_id":5032, "name":"ABILENE AVENUE PARK", "featTypes":[""], "area":5.162, "static":{"Activities":0,"Kids":0,"Watersports":0},"clusters":{"1":0.07909477,"2":0.01199677,"3":0.17661900,"4":0.72726750,"5":0.00502201},"features":[],"description":"","imgSrc":[],"location":{"latitude":0,"longitude":0,"address":""}}
{"type":"park", "_id":5033, "name":"LOST CREEK PARK", "featTypes":[""], "area":6.714, "static":{"Activities":0,"Kids":0,"Watersports":0},"clusters":{"1":0.12297700,"2":0.02159336,"3":0.23492000,"4":0.61234890,"5":0.00816074},"features":[],"description":"","imgSrc":[],"location":{"latitude":44.84211168,"longitude":-63.67825185,"address":""}}
{"type":"park", "_id":4031, "name":"CLAYTON PARK JR HIGH SCHOOL PARK", "featTypes":["SOCCER","BASKETBALL COURT"], "area":2.389, "static":{"Activities":2,"Kids":0,"Watersports":0},"clusters":{"1":0.51052290,"2":0.01760929,"3":0.19025870,"4":0.27321930,"5":0.00838988},"features":[678,786],"description":"","imgSrc":[],"location":{"latitude":44.66125448,"longitude":-63.64527218,"address":""}}
{"type":"park", "_id":4030, "name":"DUC DANVILLE SCHOOL PARK", "featTypes":["GENERAL PLAYGROUND","BASKETBALL COURT","TENNIS"], "area":3.19, "static":{"Activities":2,"Kids":1,"Watersports":0},"clusters":{"1":0.89226630,"2":0.00370158,"3":0.06914495,"4":0.03319205,"5":0.00169508},"features":[336,853,854],"description":"","imgSrc":[],"location":{"latitude":44.66195961,"longitude":-63.64574621,"address":""}}
{"type":"park", "_id":4033, "name":"FAIRVIEW HEIGHTS ELEMENTARY & FAIRVIEW JR HIGH", "featTypes":["GENERAL PLAYGROUND","TENNIS","BASKETBALL COURT","SOCCER"], "area":3.491, "static":{"Activities":3,"Kids":1,"Watersports":0},"clusters":{"1":0.90261800,"2":0.00678915,"3":0.05254689,"4":0.03496053,"5":0.00308544},"features":[856,857,858,921],"description":"","imgSrc":[],"location":{"latitude":44.64836312,"longitude":-63.64976038,"address":""}}
{"type":"park", "_id":1956, "name":"W D PIERCEY PARK", "featTypes":["SOCCER","GENERAL PLAYGROUND","BASEBALL","BASEBALL"], "area":2.455, "static":{"Activities":3,"Kids":1,"Watersports":0},"clusters":{"1":0.88494840,"2":0.00744103,"3":0.06267124,"4":0.04135456,"5":0.00358472},"features":[2,202,249,250,639],"description":"","imgSrc":[],"location":{"latitude":44.65117305,"longitude":-63.64483288,"address":""}}
{"type":"park", "_id":4035, "name":"GROSVENOR-WENTWORTH PARK ELEMENTARY SCHOOL PARK", "featTypes":["ULTIMATE FRISBEE","BASEBALL","GENERAL PLAYGROUND","TENNIS"], "area":7.773, "static":{"Activities":3,"Kids":1,"Watersports":0},"clusters":{"1":0.78235100,"2":0.02311942,"3":0.10875430,"4":0.07773996,"5":0.00803525},"features":[426,458,521,864],"description":"","imgSrc":[],"location":{"latitude":44.68536411,"longitude":-63.67320446,"address":""}}
{"type":"park", "_id":1950, "name":"WILLETT STREET PARK", "featTypes":[""], "area":0.736, "static":{"Activities":0,"Kids":0,"Watersports":0},"clusters":{"1":0.00263265,"2":0.00032211,"3":0.00800379,"4":0.98886710,"5":0.00017439},"features":[],"description":"","imgSrc":[],"location":{"latitude":44.65464967,"longitude":-63.6497847,"address":"1-45 Apollo Court, Halifax, NS B3M 1H1, Canada"}}
{"type":"park", "_id":4037, "name":"MILLWOOD ELEMENTARY SCHOOL PARK", "featTypes":["GENERAL PLAYGROUND","SOCCER","BASKETBALL HOOP"], "area":2.68, "static":{"Activities":2,"Kids":1,"Watersports":0},"clusters":{"1":0.87286200,"2":0.00414124,"3":0.08219686,"4":0.03884597,"5":0.00195388},"features":[334,967,973],"description":"","imgSrc":[],"location":{"latitude":44.78626009,"longitude":-63.70596968,"address":""}}
{"type":"park", "_id":4036, "name":"MILLWOOD HIGH SCHOOL PARK", "featTypes":["SOCCER"], "area":5.042, "static":{"Activities":1,"Kids":0,"Watersports":0},"clusters":{"1":0.22237330,"2":0.01725928,"3":0.22777040,"4":0.52554940,"5":0.00704755},"features":[960,984],"description":"","imgSrc":[],"location":{"latitude":44.78920381,"longitude":-63.70928955,"address":""}}
{"type":"park", "_id":4039, "name":"FORT SACKVILLE SCHOOL PARK", "featTypes":["GENERAL PLAYGROUND"], "area":0.561, "static":{"Activities":0,"Kids":1,"Watersports":0},"clusters":{"1":0.01972224,"2":0.00187725,"3":0.92566090,"4":0.05170837,"5":0.00103123},"features":[338],"description":"","imgSrc":[],"location":{"latitude":44.72834102,"longitude":-63.65877032,"address":"6-24 Perth Street, Bedford, NS B4A 2G4, Canada"}}
{"type":"park", "_id":4038, "name":"ELIZABETH SUTHERLAND SCHOOL PARK", "featTypes":["GENERAL PLAYGROUND","BASEBALL","BASKETBALL HOOP","BASEBALL"], "area":4.45, "static":{"Activities":3,"Kids":1,"Watersports":0},"clusters":{"1":0.89936350,"2":0.00760257,"3":0.05365245,"4":0.03611511,"5":0.00326634},"features":[88,420,453,1113],"description":"","imgSrc":[],"location":{"latitude":44.60188815,"longitude":-63.61865133,"address":"14-80 Fieldstone Street, Halifax, NS B3R 2N5, Canada"}}
{"type":"park", "_id":1228, "name":"CHERRY BROOK PARK", "featTypes":["GENERAL PLAYGROUND"], "area":0.379, "static":{"Activities":0,"Kids":1,"Watersports":0},"clusters":{"1":0.02158970,"2":0.00205483,"3":0.91839860,"4":0.05681742,"5":0.00113940},"features":[543],"description":"","imgSrc":[],"location":{"latitude":44.70741568,"longitude":-63.48920424,"address":"lake Loon Rd before Maclaughlin Rd, Cherry Brook, NS B2W, Canada"}}
{"type":"park", "_id":3249, "name":"GLEN HAVEN COMMUNITY CENTRE", "featTypes":["GENERAL PLAYGROUND"], "area":0.19, "static":{"Activities":0,"Kids":1,"Watersports":0},"clusters":{"1":0.02392547,"2":0.00227812,"3":0.90937410,"4":0.06314682,"5":0.00127548},"features":[304],"description":"","imgSrc":[],"location":{"latitude":44.64353399,"longitude":-63.90906661,"address":""}}
{"type":"park", "_id":3243, "name":"LAKE OF THE WOODS PARK", "featTypes":["BASEBALL","GENERAL PLAYGROUND","TENNIS","SHUFFLEBOARD","BASKETBALL HOOP"], "area":1.353, "static":{"Activities":4,"Kids":1,"Watersports":0},"clusters":{"1":0.69080070,"2":0.02934194,"3":0.15008870,"4":0.11447530,"5":0.01529333},"features":[413,822,852,1161,1162],"description":"","imgSrc":[],"location":{"latitude":44.66707643,"longitude":-63.78940927,"address":"11 Lake Place, Hubley, NS B3Z 1A7, Canada"}}
{"type":"park", "_id":3242, "name":"OMEGA COURT PARK", "featTypes":[""], "area":0.058, "static":{"Activities":0,"Kids":0,"Watersports":0},"clusters":{"1":0.00948516,"2":0.00115149,"3":0.02900388,"4":0.95971370,"5":0.00064578},"features":[],"description":"","imgSrc":[],"location":{"latitude":44.66853606,"longitude":-63.80864632,"address":""}}
{"type":"park", "_id":3240, "name":"WENDYBROOK DRIVE PARK", "featTypes":[""], "area":2.663, "static":{"Activities":0,"Kids":0,"Watersports":0},"clusters":{"1":0.01459917,"2":0.00189049,"3":0.04073408,"4":0.94185570,"5":0.00092057},"features":[],"description":"","imgSrc":[],"location":{"latitude":44.66762457,"longitude":-63.88994761,"address":""}}
{"type":"park", "_id":3245, "name":"BIG HUBLEY LAKE ROAD PARK", "featTypes":["TENNIS","BASKETBALL HOOP"], "area":3.266, "static":{"Activities":2,"Kids":0,"Watersports":0},"clusters":{"1":0.52839660,"2":0.01842616,"3":0.18393570,"4":0.26090570,"5":0.00833582},"features":[654,655],"description":"","imgSrc":[],"location":{"latitude":44.65942478,"longitude":-63.82764648,"address":""}}
{"type":"park", "_id":3244, "name":"FIVE ISLAND LAKE PARK", "featTypes":[""], "area":0.513, "static":{"Activities":0,"Kids":0,"Watersports":0},"clusters":{"1":0.00433755,"2":0.00052901,"3":0.01323067,"4":0.98161300,"5":0.00028978},"features":[],"description":"","imgSrc":[],"location":{"latitude":44.66754002,"longitude":-63.79695815,"address":""}}
{"type":"park", "_id":379, "name":"DARTMOUTH COMMONS", "featTypes":["BASKETBALL HOOP","GENERAL PLAYGROUND","BASEBALL","BASEBALL","GENERAL PLAYGROUND","BASKETBALL COURT","TENNIS","BASKETBALL COURT","OUTDOOR GYM"], "area":12.428, "static":{"Activities":7,"Kids":2,"Watersports":0},"clusters":{"1":0.38948560,"2":0.16527700,"3":0.20737400,"4":0.17321340,"5":0.06464991},"features":[17,277,348,353,1087,1209,1231,1232,4497],"description":"","imgSrc":[],"location":{"latitude":0,"longitude":0,"address":""}}
{"type":"park", "_id":829, "name":"COMMODORE PARK", "featTypes":[""], "area":0.145, "static":{"Activities":0,"Kids":0,"Watersports":0},"clusters":{"1":0.00834316,"2":0.00101354,"3":0.02551086,"4":0.96456660,"5":0.00056589},"features":[],"description":"","imgSrc":[],"location":{"latitude":44.67969681,"longitude":-63.5320041,"address":"71 Louisburg Lane, Dartmouth, NS B2W 1N3, Canada"}}
{"type":"park", "_id":2906, "name":"LEWIS LAKE TERRACE PARK", "featTypes":[""], "area":1.776, "static":{"Activities":0,"Kids":0,"Watersports":0},"clusters":{"1":0.00308869,"2":0.00038706,"3":0.00907688,"4":0.98724920,"5":0.00019812},"features":[],"description":"","imgSrc":[],"location":{"latitude":44.70031391,"longitude":-63.73272211,"address":""}}
{"type":"park", "_id":5107, "name":"MELVILLE ISLAND LOOKOFF PARK", "featTypes":[""], "area":0.095, "static":{"Activities":0,"Kids":0,"Watersports":0},